stop_point_id,lat,lon,name,stop_point_type
StopPoint:node:283405002,9.968611,76.2450662,Fort Kochi Junkar Jetty,StopPosition
StopPoint:node:622522403,9.9531189,76.38995369999999,Sasthammugal,Platform
StopPoint:node:622536423,9.9390109,76.41855749999999,Kuppethazham,Unknown
StopPoint:node:622536426,9.933668899999999,76.42331039999999,Thiruvaniyoor Kochangadi,Unknown
StopPoint:node:622536442,9.9436977,76.4012304,Tondanpara,Unknown
StopPoint:node:622536446,9.9397137,76.4052537,Kumbhappilly,Unknown
StopPoint:node:622536448,9.942012199999999,76.4105538,Vandipetta,Unknown
StopPoint:node:622536449,9.9397824,76.4133647,Valavu,Unknown
StopPoint:node:622536458,9.9474175,76.39529739999999,Vennikkulam,Unknown
StopPoint:node:692884041,9.9738395,76.2445432,Vypin Jetty,StopPosition
StopPoint:node:944902406,9.977936,76.334205,Labour Corner,Platform
StopPoint:node:976452403,10.0281279,76.3111133,Bus Stop,Unknown
StopPoint:node:982135818,9.9734483,76.2440927,Vypin,Platform
StopPoint:node:1049713235,10.1395161,76.1990351,,Platform
StopPoint:node:1049713241,10.1445191,76.2264466,KMK Jn,Platform
StopPoint:node:1172715264,10.1887554,76.2019783,Moothakunnam Bus Stop,Platform
StopPoint:node:1190898939,9.9432792,76.3740175,Thiruvankulam Junction,Platform
StopPoint:node:1497681417,10.0444473,76.3964925,Pazhanganad,Platform
StopPoint:node:1525970903,10.073023599999999,76.3991994,Confident ATIK III,Unknown
StopPoint:node:1725434727,9.890457999999999,76.3120916,Kumbalam South,Unknown
StopPoint:node:1755918981,10.034550999999999,76.2720485,,Unknown
StopPoint:node:2101122696,9.900362699999999,76.3844498,"Mulanthuruthy, Pallithazham",Unknown
StopPoint:node:2101122702,9.9016755,76.3931108,"Mulanthuruthy, Karavatte Kurish",Unknown
StopPoint:node:2101122705,9.9137798,76.4120149,Thuppampady,Unknown
StopPoint:node:2101136078,9.920638799999999,76.4086246,Thalacode,Unknown
StopPoint:node:2101143428,9.9145566,76.4215018,Vettikkal,Unknown
StopPoint:node:2305959080,10.2024999,76.4134492,Canal Stop Kidangoor,StopPosition
StopPoint:node:2376855121,9.9517396,76.3583973,Karingachira,Platform
StopPoint:node:2376866788,9.9469449,76.3533443,Railway Station,Unknown
StopPoint:node:2391343016,9.952093,76.25364139999999,Koovapadam Bus stop,Unknown
StopPoint:node:2391343017,9.952029,76.25236009999999,Cochin College Bus stop,Unknown
StopPoint:node:2391343018,9.9520508,76.25572249999999,,Unknown
StopPoint:node:2391343019,9.951912,76.2576833,Panayappally,Unknown
StopPoint:node:2391343020,9.9577841,76.25795959999999,Aanavathil Bus stop,Unknown
StopPoint:node:2391343021,9.9557512,76.2579174,,Unknown
StopPoint:node:2391343022,9.9593644,76.258061,Star junction bus stop,Unknown
StopPoint:node:2391343057,9.9494846,76.2557001,Panayappally bus stop,Unknown
StopPoint:node:2449090672,10.1749423,76.35292129999999,Anappara Bus Stop,Platform
StopPoint:node:2580734253,10.0054992,76.3128382,PipeLine Junction,Unknown
StopPoint:node:2580734650,9.9989727,76.3137629,EMC Bus Stop,Unknown
StopPoint:node:2580734682,9.999015,76.3140901,EMC Bus Stop,Unknown
StopPoint:node:2635014700,9.9310677,76.2675028,Bus to Alleppey,Platform
StopPoint:node:2712142797,9.9783505,76.276848,Menaka,Platform
StopPoint:node:2712147178,9.9681464,76.2880627,Ernakulam South,Platform
StopPoint:node:2744190416,10.0189218,76.2748891,Vaduthala Valavu,Platform
StopPoint:node:2744199202,10.0137755,76.276927,Don Bosco,Platform
StopPoint:node:2744199206,10.013149499999999,76.2767624,Vaduthala Gate,Platform
StopPoint:node:2744199210,10.006632999999999,76.2782682,Lourde's Hospital,Unknown
StopPoint:node:2744199215,10.0067048,76.27843399999999,Lourde's Hospital,Unknown
StopPoint:node:2744203515,10.0012253,76.2795398,Pachalam,Unknown
StopPoint:node:2744203523,10.001257599999999,76.2790758,Pachalam,Platform
StopPoint:node:2744203531,9.9959574,76.2805364,Ayyappankavu,Unknown
StopPoint:node:2780838959,9.9941444,76.2918207,എറണാകുളം കലൂർ ബസ് സ്റ്റാന്റ്,Platform
StopPoint:node:2780917203,10.1449847,76.23202309999999,Kerala State Road Transport Corporation Bus Stand,Platform
StopPoint:node:2858643010,10.1674294,76.2130069,Chakamarassery Bus Stop,Unknown
StopPoint:node:2858643013,10.1564108,76.2135426,Pattanam Kavala,Unknown
StopPoint:node:2858684139,10.181785,76.2047335,Labour Junction,Unknown
StopPoint:node:2923441825,9.967761999999999,76.3218957,Vyttila Mobility Hub Private Stand,Platform
StopPoint:node:2923441826,9.969215,76.3216194,Vyttila Mobility Hub,Platform
StopPoint:node:2928886789,10.0717346,76.2119072,Nayarambalam,Platform
StopPoint:node:2965439530,10.1483551,76.2449173,Vedimara,Platform
StopPoint:node:2965446278,10.149125399999999,76.2345361,Chendamangalam Junction,Platform
StopPoint:node:2965448787,10.146376499999999,76.2533531,Mannam,Unknown
StopPoint:node:2965453933,10.1458484,76.2569812,Paarappuram,Unknown
StopPoint:node:2965463994,10.133282099999999,76.27508139999999,Karuchira,Unknown
StopPoint:node:2965467030,10.1308151,76.2874664,Purapillikavu,Unknown
StopPoint:node:2965468064,10.131110099999999,76.2824669,Thattampady,Unknown
StopPoint:node:2965468920,10.1319284,76.2791508,Marottichuvadu,Unknown
StopPoint:node:2965470242,10.1302825,76.2931358,Karumaloor,Unknown
StopPoint:node:3149467915,10.0423949,76.4035155,Thamarachal Bus Stop,Unknown
StopPoint:node:3276153651,9.9629067,76.3183732,Kallada Bus Stop,Platform
StopPoint:node:3367437300,10.1004806,76.26385499999999,Koonammavu Bus Stop,Unknown
StopPoint:node:3367438603,10.0789142,76.2745096,,Platform
StopPoint:node:3676223741,10.148579999999999,76.2283668,old bus stop,Platform
StopPoint:node:3676241133,10.1264475,76.3209838,mariyapadi,Unknown
StopPoint:node:3676244636,10.136827,76.2696768,Manakkapadi,Unknown
StopPoint:node:3676244647,10.1485409,76.2278556,namboodrichanda aal,Platform
StopPoint:node:3676397041,10.1492662,76.2355712,Chendamangalam Junction,Platform
StopPoint:node:3687421346,10.1957156,76.2915147,kalyad Bus stop,Platform
StopPoint:node:3711605443,10.1488639,76.23051219999999,Civil Station,Platform
StopPoint:node:3711605445,10.1487713,76.229096,Old Bus Stand,Unknown
StopPoint:node:3736262611,9.9706411,76.31795009999999,Vyttila Bus Stop,Platform
StopPoint:node:3744952958,9.9680056,76.3129864,Janatha Junction,StopPosition
StopPoint:node:3744952959,9.9680849,76.3129701,Janatha Junction,StopPosition
StopPoint:node:3813525947,10.0397534,76.30073209999999,stop,Unknown
StopPoint:node:3842288158,10.0096153,76.3037762,Mamangalam,Unknown
StopPoint:node:3844271357,10.1498479,76.2348281,Chendamangalam Kavala,Unknown
StopPoint:node:3846966457,10.1263087,76.3293535,,Unknown
StopPoint:node:3864767757,10.0212159,76.3346249,NGO Quarters Bus Stop,Unknown
StopPoint:node:3870727313,10.0145846,76.2277549,Valappu,Platform
StopPoint:node:3870727314,10.0207973,76.2248102,Thekkan Malippuram,Platform
StopPoint:node:3870727315,10.025438399999999,76.2236369,Perumalppadi,Platform
StopPoint:node:3886536252,9.9833176,76.274318,High Court Junction,Platform
StopPoint:node:3996656188,9.950291799999999,76.2921288,Thevara Junction,Unknown
StopPoint:node:3996661158,9.9591775,76.28900829999999,Ravipuram,Platform
StopPoint:node:4021153223,10.110229799999999,76.3493897,Aluva,StopPosition
StopPoint:node:4102699490,9.9689597,76.4226673,പുത്തൻകുരിശ്,Platform
StopPoint:node:4102699591,9.9793518,76.4762765,"Medical Mission, കോലഞ്ചേരി",Platform
StopPoint:node:4102711889,9.9551555,76.3960273,Panikkarupadi,Platform
StopPoint:node:4118630290,10.1684934,76.3402155,poikkattussery bus stop,Unknown
StopPoint:node:4118630691,10.175242599999999,76.3304103,Priya Hospital Bus Stop,Platform
StopPoint:node:4118630889,10.178728099999999,76.3302319,Kurumassery Aluva Bus Stop,Platform
StopPoint:node:4122530889,10.188161599999999,76.328169,moozhikulam bus stop,Unknown
StopPoint:node:4270131792,10.1308404,76.3902997,"Thettaly Bus Stop , Chowara",Unknown
StopPoint:node:4270140391,10.1319073,76.39943869999999,"Kaipra bus Stop , Sreemoolanagaram",Unknown
StopPoint:node:4279628189,10.1903408,76.4764861,"Plappilly Kavala Bus Stop, Neeleeswaram Mundangamattom Road",Unknown
StopPoint:node:4290205591,10.1222049,76.3667615,Gandhipuram Bus Stop,Unknown
StopPoint:node:4290219991,10.1857337,76.39740739999999,Nayathode Bus Stop,Unknown
StopPoint:node:4291964894,10.0811722,76.3482038,Kunnatheri Junction,Unknown
StopPoint:node:4291964895,10.1282269,76.372571,Kondotty Bus Stop,Unknown
StopPoint:node:4292013891,10.1278731,76.3693424,Purayar Bus Stop,Unknown
StopPoint:node:4292039789,10.0090933,76.31688799999999,"Chembumukku Bus Stop , Kakkanad",Unknown
StopPoint:node:4300226389,10.1100516,76.3724534,"Thottumugham , Aluva",Unknown
StopPoint:node:4332184553,9.9499059,76.33172689999999,Petta Bus Stop,Platform
StopPoint:node:4351633724,10.1775036,76.3033311,Aattupuram,Platform
StopPoint:node:4351633725,10.1768565,76.30660999999999,Ayroor School,Platform
StopPoint:node:4351633726,10.177061499999999,76.309303,Oozhan Kavala,Platform
StopPoint:node:4354393904,10.1780796,76.2109011,Andipillikavu,Unknown
StopPoint:node:4354393905,10.1787139,76.2086774,Madaplathuruth,Unknown
StopPoint:node:4361725219,10.016383,76.3023875,Edappally High School,Unknown
StopPoint:node:4419870996,10.1185586,76.3433527,പറവൂര്‍ കവല,Platform
StopPoint:node:4434143093,10.1534744,76.3400046,Chengamanad,Unknown
StopPoint:node:4434161789,10.1668326,76.461265,Onampilly,Unknown
StopPoint:node:4434161890,10.1534736,76.3404527,Chegamanad,Unknown
StopPoint:node:4434161990,10.1535484,76.340413,,Unknown
StopPoint:node:4434162289,10.1559262,76.330283,Palapprassery,Unknown
StopPoint:node:4437337990,10.1567922,76.32651729999999,Chunkam Bus Stop,Unknown
StopPoint:node:4471324994,10.0228068,76.34114149999999,Mavelipuram Junction Bus Stop,Unknown
StopPoint:node:4471324995,10.0230524,76.3411764,Mavelipuram Junction Bus Stop,Unknown
StopPoint:node:4473580196,9.9073744,76.36663999999999,"Valiyakulam, Udayamperoor",Unknown
StopPoint:node:4548818893,10.0550777,76.3227052,HMT Junction,Unknown
StopPoint:node:4548830490,10.054534799999999,76.32199659999999,HMT Junction,Unknown
StopPoint:node:4561240974,9.9717986,76.2822067,General hospital,Platform
StopPoint:node:4639553292,9.960856399999999,76.2428762,Chirattapalam,Platform
StopPoint:node:4639553293,9.9633006,76.2431368,,Unknown
StopPoint:node:4648279091,9.96682,76.31931689999999,,Platform
StopPoint:node:4660701152,10.1890702,76.2015464,Moothakunnam,Unknown
StopPoint:node:4665138938,10.1452796,76.2267225,KMK Jn to Aluva,Platform
StopPoint:node:4665138939,10.144698,76.22792919999999,KMK Jn,Platform
StopPoint:node:4667905209,10.1845758,76.19397529999999,tharayil kavala,Platform
StopPoint:node:4675300271,10.174714999999999,76.2999907,shap padi,Platform
StopPoint:node:4694147800,10.182976199999999,76.1737393,Munambam Ferry,Platform
StopPoint:node:4695161877,10.0804967,76.33918899999999,Ambattukavu,Unknown
StopPoint:node:4708279359,10.0622109,76.28810469999999,Cheranelloor Signal,Unknown
StopPoint:node:4708279361,10.1144824,76.2598052,Naalam Mile,Unknown
StopPoint:node:4708279363,10.1218792,76.2546248,,Unknown
StopPoint:node:4708279366,10.1274239,76.2434083,KandaKarnanVeli,Unknown
StopPoint:node:4708279367,10.133788299999999,76.2402982,Vazhikulangara,Unknown
StopPoint:node:4708279877,10.112461399999999,76.2601715,Kochal,Unknown
StopPoint:node:4708733903,10.078248499999999,76.27557019999999,Sree Narayana Dharma Paripalana Yogam Bus Stop,Platform
StopPoint:node:4716589462,10.155043599999999,76.29524479999999,Kunnukara,Unknown
StopPoint:node:4716589463,10.1538401,76.2735362,Thelathuruth,Unknown
StopPoint:node:4716591373,10.154947499999999,76.27995969999999,,Unknown
StopPoint:node:4716858150,10.1499588,76.2171031,Kottakavu Palli,Unknown
StopPoint:node:4716858152,10.1561769,76.3112166,Kuttiyal,Platform
StopPoint:node:4729063042,10.1972875,76.20095289999999,V.P. Thuruth,Unknown
StopPoint:node:4729063046,10.121188799999999,76.19912149999999,Janatha,Platform
StopPoint:node:4729063048,10.0827527,76.2096157,edavanakad palli,Platform
StopPoint:node:4729063216,10.1263354,76.1983715,Ayyampilly,Platform
StopPoint:node:4729063219,10.0790683,76.2105579,Aniyal,Platform
StopPoint:node:4729063228,10.066506,76.2129234,ATH,Platform
StopPoint:node:4729063558,10.0472805,76.2171948,Njarackal,Platform
StopPoint:node:4729546009,10.087694299999999,76.208524,AE Office,Platform
StopPoint:node:4731124415,10.1480679,76.22473959999999,Municipal Junction,Platform
StopPoint:node:4731124416,10.1500428,76.2206028,Paravur Market,Unknown
StopPoint:node:4731124902,10.186386899999999,76.2023631,,Unknown
StopPoint:node:4731124903,10.179205699999999,76.22627349999999,Vadakkumpuram,Unknown
StopPoint:node:4731124904,10.1505785,76.26826539999999,Manjaly,Unknown
StopPoint:node:4731125089,10.1688849,76.2342618,Bharanimukku Bus Stop,Unknown
StopPoint:node:4731125112,10.1497458,76.2608503,,Unknown
StopPoint:node:4731125113,10.1485381,76.22632279999999,,Platform
StopPoint:node:4731125114,10.151366,76.2233285,Kannankulangara,Unknown
StopPoint:node:4731125115,10.1492693,76.2182922,,Unknown
StopPoint:node:4731125540,10.188386,76.2171176,,Unknown
StopPoint:node:4731125541,10.148691,76.24413059999999,Vedimara,Unknown
StopPoint:node:4731125594,10.148915299999999,76.2242163,Municipal Junction,Platform
StopPoint:node:4731125595,10.1511017,76.22032399999999,Paravur Market,Unknown
StopPoint:node:4731125621,10.1868815,76.20305359999999,Kuriyapilly,Unknown
StopPoint:node:4731125622,10.150127699999999,76.2631801,,Unknown
StopPoint:node:4731125821,10.1876295,76.2077975,,Unknown
StopPoint:node:4731126041,10.1495123,76.2546397,,Unknown
StopPoint:node:4731126042,10.149103,76.2325396,Private Bustand,Platform
StopPoint:node:4731126321,10.1499016,76.2669439,,Unknown
StopPoint:node:4733928387,10.0584683,76.2905773,Manjumel kavala,Unknown
StopPoint:node:4735966321,9.967338,76.28616219999999,Jose Jn,Platform
StopPoint:node:4738562685,10.0580976,76.29062259999999,manjumal Kavala,Unknown
StopPoint:node:4739412584,10.1974228,76.20074129999999,VP Thuruth,Unknown
StopPoint:node:4740877276,10.1617599,76.2143399,Aalummaav,Unknown
StopPoint:node:4740877282,10.184275699999999,76.20462239999999,,Unknown
StopPoint:node:4740877428,10.1655295,76.2133643,Parayakad Junction,Unknown
StopPoint:node:4740877599,10.171766,76.2120104,Thuruthipuram,Unknown
StopPoint:node:4740877600,10.178149099999999,76.2109918,Andipillikavu,Unknown
StopPoint:node:4740877952,10.178110799999999,76.2109639,Andipillikavu,Unknown
StopPoint:node:4745604977,10.153578,76.2735194,Thelathuruth,Unknown
StopPoint:node:4745634827,10.1726002,76.2963929,,Platform
StopPoint:node:4745634828,10.1725078,76.2963547,,Platform
StopPoint:node:4745634829,10.170451199999999,76.2958867,,Platform
StopPoint:node:4745634831,10.1628388,76.2875124,,Unknown
StopPoint:node:4745634832,10.155470099999999,76.2843876,,Unknown
StopPoint:node:4745634833,10.155574399999999,76.284334,,Unknown
StopPoint:node:4745634834,10.155553699999999,76.2845133,,Platform
StopPoint:node:4745634835,10.159627,76.2858239,,Unknown
StopPoint:node:4753199419,9.975278399999999,76.2785881,St. Teresa's,Platform
StopPoint:node:4759260783,9.794411499999999,76.3025519,,Unknown
StopPoint:node:4759826121,9.9317884,76.26659529999999,Bus stop to Fort Cochin,Platform
StopPoint:node:4769428928,10.0250304,76.3073744,Edapally,Unknown
StopPoint:node:4769428932,10.0435236,76.2987272,Kunnumpiram,Unknown
StopPoint:node:4769436232,9.9501589,76.33206679999999,,Platform
StopPoint:node:4769436233,9.9546912,76.3276712,Champakkara,Platform
StopPoint:node:4769436235,9.969521,76.3179692,Vytilla Junction,Platform
StopPoint:node:4792523922,9.8234281,76.31110029999999,Eramalloor,Unknown
StopPoint:node:4792523923,9.8347087,76.3093887,Kochveli junction,Unknown
StopPoint:node:4792525423,9.7962724,76.3158703,Kuthiyathodu,Unknown
StopPoint:node:4792525427,9.703495499999999,76.3564987,Chenganda,Unknown
StopPoint:node:4792530422,9.8781502,76.30381679999999,Aroor Bypass,Unknown
StopPoint:node:4802320604,10.1757841,76.2276799,,Unknown
StopPoint:node:4802320607,10.1781641,76.22188369999999,,Unknown
StopPoint:node:4802320608,10.1782737,76.2162594,SN Road,Unknown
StopPoint:node:4802320945,10.1783334,76.21865199999999,കൊച്ചങ്ങാടി,Unknown
StopPoint:node:4805940485,10.043532899999999,76.2985269,,Unknown
StopPoint:node:4884146623,9.9682011,76.2444663,Bus to airport,Unknown
StopPoint:node:4889056845,10.102941999999999,76.35846099999999,Thrikkunnathu Seminary,Platform
StopPoint:node:4889056860,10.1030366,76.35574869999999,Thrikkunnathu Seminary,Platform
StopPoint:node:4903755565,9.991377499999999,76.28836009999999,Town Hall,StopPosition
StopPoint:node:5145335691,9.9853471,76.27982589999999,St Alberts College Bus Stop,Unknown
StopPoint:node:5240431892,9.9781935,76.2766276,Penta Menaka,Unknown
StopPoint:node:5240432527,9.973791199999999,76.2791799,General Hospital,Platform
StopPoint:node:5240459124,9.9393569,76.2962826,,Unknown
StopPoint:node:5261851010,10.1571058,76.3551756,,Unknown
StopPoint:node:5261851012,10.157984599999999,76.39218679999999,നെടുമ്പാശ്ശേരി എയർപോർട്ട് ബസ് സ്റ്റാന്റ്,Unknown
StopPoint:node:5295234430,9.9629303,76.28814,Pallimuku,Platform
StopPoint:node:5377832022,9.9519708,76.3610771,Hill Palace Junction,Platform
StopPoint:node:5377841321,9.9532618,76.3406358,,Platform
StopPoint:node:5379782848,9.965929899999999,76.2952354,Manorama,Platform
StopPoint:node:5423779221,10.0280642,76.3099131,Edappally Toll Kallada Bus,Unknown
StopPoint:node:5524950666,10.0814506,76.3644444,Kodikuthmala Bus Stop,Platform
StopPoint:node:5657053466,9.6643244,76.2995808,Bus Stop,Platform
StopPoint:node:5657053467,9.6652325,76.3043462,Bus Stop,Platform
StopPoint:node:5657053468,9.6693939,76.3040668,Bus Stop,Platform
StopPoint:node:5689967927,9.7277513,76.3003038,Vettackal Bus Stop,Platform
StopPoint:node:5695746528,9.9870285,76.26740869999999,Bolgatty Ferry,Platform
StopPoint:node:5756729625,10.0238781,76.2516658,Mulavukad Panchayat Bus Stop,Unknown
StopPoint:node:5756729626,10.029747,76.2545572,Tower Line Bus Stop,Unknown
StopPoint:node:5756729627,10.0415239,76.2627983,Moolampilly Bus Stop,Unknown
StopPoint:node:5756729628,10.0107693,76.2580991,Mulavukadu Bus Stop,Unknown
StopPoint:node:5756729629,9.9910865,76.264877,Bolgatty Bus Stop,Platform
StopPoint:node:5756729630,9.9564416,76.2570915,Chakkamadam Bus Stop,Unknown
StopPoint:node:5756729631,9.964146999999999,76.245832,Kunnumpuram Bus Stop,Unknown
StopPoint:node:5757830236,10.056813,76.456823,Vathimattom Bus Stop,Unknown
StopPoint:node:5757830237,10.058888999999999,76.459366,Bank Junction Bus Stop,Unknown
StopPoint:node:5757830238,10.051547,76.449124,Chelakkulam Bus Stop,Unknown
StopPoint:node:5757830239,10.053965999999999,76.45285799999999,Jai Bharath College Bus Stop,Unknown
StopPoint:node:5757830240,10.043486,76.448447,Kummanod Bhandarakkavala Bus Stop,Unknown
StopPoint:node:5757830241,10.030714,76.44874899999999,Double Paalam Bus Stop,Unknown
StopPoint:node:5757830243,10.038879999999999,76.450163,Kummanod Bus Stop,Unknown
StopPoint:node:5757830244,10.001394999999999,76.458254,Kadayirippu Bus Stop,Unknown
StopPoint:node:5757830245,10.016261,76.45491899999999,Valathupady Bus Stop,Platform
StopPoint:node:5757830246,10.010888,76.455643,Engineering College Bus Stop,Platform
StopPoint:node:5757830247,9.974027999999999,76.447603,Patham Mile Bus Stop,Unknown
StopPoint:node:5757830248,10.055159999999999,76.435649,West Chelakkulam Bus Stop,Unknown
StopPoint:node:5757830249,10.053289999999999,76.43148599999999,West Chelakkulam Bus Stop,Unknown
StopPoint:node:5757830250,10.051895,76.42908299999999,Vilangu Bus Stop,Unknown
StopPoint:node:5757830251,10.0211429,76.4285542,Millumpadi Bus Stop,Unknown
StopPoint:node:5757830252,10.0358702,76.4231032,Njaralloor Bus Stop,Unknown
StopPoint:node:5757830253,10.0338015,76.4300655,Njaralloor Bus Stop,Unknown
StopPoint:node:5757830254,10.018131,76.426819,Ambalathazham Bus Stop,Unknown
StopPoint:node:5757830255,10.005044999999999,76.44003599999999,Pancode Bus Stop,Platform
StopPoint:node:5757830256,10.007427999999999,76.441861,Pulinchode Bus Stop,Platform
StopPoint:node:5757830257,9.999386999999999,76.440958,Iruppachira,Unknown
StopPoint:node:5757830258,9.982756,76.442353,Ashramam Bus Stop,Unknown
StopPoint:node:5757830260,10.060018999999999,76.41962,Muri Vilangu Bus Stop,Unknown
StopPoint:node:5757830261,10.056808,76.41066099999999,Chemmalappady Bus Stop,Unknown
StopPoint:node:5757830263,10.036567,76.41628299999999,Molekkurish Bus Stop,Unknown
StopPoint:node:5757830264,10.040358999999999,76.413688,Sevana Padi Bus Stop,Unknown
StopPoint:node:5757830265,10.036514,76.419899,Mayiladum Kunnu Bus Stop,Unknown
StopPoint:node:5757830266,10.036218,76.408312,Swarnath Bus Stop,Unknown
StopPoint:node:5757830267,10.030861999999999,76.408022,Achappan Kavala Bus Stop,Unknown
StopPoint:node:5757830268,10.0176503,76.4022073,Morakkala Church Bus Stop,Unknown
StopPoint:node:5757830269,10.010966999999999,76.410359,Pailimukk Bus Stop,Unknown
StopPoint:node:5757830270,9.98954,76.409115,Peechingachira Bus Stop,Unknown
StopPoint:node:5757830271,9.984468,76.412076,Rajashree Kavala Bus Station,Unknown
StopPoint:node:5757830272,9.990449,76.420788,Kollappady Bus Stop,Unknown
StopPoint:node:5757830273,9.991907,76.40554399999999,Colony Bus Stop,Unknown
StopPoint:node:5757830274,9.96585,76.412663,Bible College Jn Bus Stop,Unknown
StopPoint:node:5757830275,9.973352,76.417762,Pannikuzhy Bus Stop,Unknown
StopPoint:node:5757830276,9.963609,76.407106,Varikoli Bus Stop,Platform
StopPoint:node:5757830277,10.059535799999999,76.3953878,Pukkattupady Bus Stop,Unknown
StopPoint:node:5757830278,10.028338999999999,76.393309,Wonderla,Unknown
StopPoint:node:5757830279,10.029427,76.385605,Manakkakadavu Bus Stop,Unknown
StopPoint:node:5757830280,10.029641,76.389682,Pallithazham Bus Stop,Unknown
StopPoint:node:5757830281,10.000349,76.393602,Padathikara Bus Stop,Unknown
StopPoint:node:5757830282,10.007602,76.378181,Padathikkara Thuruth Bus Stop,Unknown
StopPoint:node:5757830283,9.984426,76.395596,FACT Club Bus Stop,Unknown
StopPoint:node:5757830284,9.985926,76.39197,Harimattam Bus Stop,Unknown
StopPoint:node:5757830285,9.983602,76.389309,Ambalamedu Post Office Bus Stop,Unknown
StopPoint:node:5757830286,9.977938,76.38469599999999,Kuzhikkad Bus Stop,Unknown
StopPoint:node:5757830287,9.994612,76.396456,Chakku Company Bus Stop,Unknown
StopPoint:node:5757830288,9.955282,76.39600399999999,Panikkarupady Bus Stop,Unknown
StopPoint:node:5757830289,9.970837,76.381241,HOC Bus Stop,Unknown
StopPoint:node:5757830290,9.968428,76.377659,Refinery Bus Stop,Unknown
StopPoint:node:5757830291,9.975317,76.381134,Jwalagiri,Unknown
StopPoint:node:5757830292,10.0492197,76.37189289999999,Kuzhivelippady Bus Stop,Unknown
StopPoint:node:5757830293,10.015341,76.36366699999999,Infopark Bus Stop,Unknown
StopPoint:node:5757830294,9.9565969,76.3655603,Kollanpady Bus Stop,Unknown
StopPoint:node:5757830295,9.962722,76.357874,Makaliyam Bus Stop,Unknown
StopPoint:node:5757830296,9.963528,76.37422,Indian Oil Corporation Bus Stop,Unknown
StopPoint:node:5757830297,9.957388,76.358314,Navainfotech Services Pvt Ltd Bus Stop,Unknown
StopPoint:node:5757830298,9.959192,76.367122,Chitrapuzha Bus Stop,Unknown
StopPoint:node:5757830299,10.0490743,76.33894529999999,HMT Bus Stop,Unknown
StopPoint:node:5757830300,10.053977,76.35478599999999,Co Operative Medical College Bus Stop,Unknown
StopPoint:node:5757830301,10.046687,76.33729799999999,Median Bus Stop,Unknown
StopPoint:node:5757830303,10.0353266,76.3340372,Judgemukku Bus Stop,Unknown
StopPoint:node:5757830304,10.036249999999999,76.337898,Vallathol Padi Bus Stop,Unknown
StopPoint:node:5757830305,10.041267999999999,76.33837,Kaipadamugal Bus Stop,Unknown
StopPoint:node:5757830306,10.021818,76.33800699999999,Ambadimoola Bus Stop,Unknown
StopPoint:node:5757830308,10.012914,76.341698,Kakkanad Bus Stop,Unknown
StopPoint:node:5757830309,10.017111,76.34480099999999,Kakkanad,Unknown
StopPoint:node:5757830310,10.00635,76.34499,CSEZ Bus Stop,Unknown
StopPoint:node:5757830311,10.015479,76.35446999999999,Kuzhikattumoola Bus Stop,Unknown
StopPoint:node:5757830312,10.0009641,76.3499252,Chittethukara Bus Stop,Unknown
StopPoint:node:5757830313,10.003941,76.34678199999999,Adarsha Junction Bus Stop,Unknown
StopPoint:node:5757830314,10.000212,76.33416,Palachuvadu Junction Bus Stop,Unknown
StopPoint:node:5757830315,9.998531999999999,76.350794,Chittethukara Bus Stand,Unknown
StopPoint:node:5757830316,9.995506899999999,76.3515159,Rajagiri Bus Stop,Unknown
StopPoint:node:5757830317,9.982693,76.352437,Indian Oil Bus Stop- Irumpanam,Unknown
StopPoint:node:5757830318,9.977198,76.354204,Vettikkavu Bus Stop,Unknown
StopPoint:node:5757830319,9.979602,76.353172,BPCL Bus Stop,Unknown
StopPoint:node:5757830521,9.973035999999999,76.3364835,Mathoor Junction Bus Stop,Platform
StopPoint:node:5757830523,9.9576037,76.34354669999999,Azad Maidan,Platform
StopPoint:node:5757830524,9.974985,76.354534,Kadathu Kadavu Bus Stop,Unknown
StopPoint:node:5757830525,9.965567199999999,76.3402366,Puthiya Road Bus Stop,Platform
StopPoint:node:5757830529,10.053882,76.328147,Govt ITI Bus Stop,Unknown
StopPoint:node:5757830531,10.044267999999999,76.324638,CUSAT Main Office Bus Stop,Unknown
StopPoint:node:5757830533,10.05212,76.319462,South Kalamassery Junction Bus Stop,Unknown
StopPoint:node:5757830534,10.048895,76.318985,CUSAT Bus Stop,Unknown
StopPoint:node:5757830535,10.038159,76.31537999999999,Pathadipalam Bus Stop,Platform
StopPoint:node:5757830536,10.033496999999999,76.31302199999999,Koonamthai Bus Stop?,Unknown
StopPoint:node:5757830537,10.027592,76.31559399999999,Club Junction Bus Stop,Unknown
StopPoint:node:5757830538,10.030021999999999,76.319097,Unnichira Bus Stop,Unknown
StopPoint:node:5757830539,10.031875999999999,76.321822,Thykkavu Bus Stop,Unknown
StopPoint:node:5757830540,10.039102,76.327803,University Ground Bus Stop,Unknown
StopPoint:node:5757830541,10.010064,76.31115199999999,Aarow Global Business Solutions,Unknown
StopPoint:node:5757830542,10.006416999999999,76.31556499999999,Alinchuvadu Bus Stop,Unknown
StopPoint:node:5757830543,10.0048763,76.31325819999999,Pipeline Junction Bus Stop to airport,Unknown
StopPoint:node:5757830544,10.012525799999999,76.326385,Vazhakkala Bus Stop,Unknown
StopPoint:node:5757830545,10.013359999999999,76.330542,Colony Junction Bus Stop,Unknown
StopPoint:node:5757830546,10.0141242,76.3328602,Padamugal Bus Stop,Unknown
StopPoint:node:5757830547,10.007596999999999,76.332995,Satellite Bus Stop,Unknown
StopPoint:node:5757830548,9.9959256,76.3256174,Vennala School Bus Stop,Unknown
StopPoint:node:5757830549,9.987392,76.316037,Vyshali Bus Stop?,Unknown
StopPoint:node:5757830550,9.981506999999999,76.332278,Kappattikavu Bus Stop?,Unknown
StopPoint:node:5757830551,9.992709999999999,76.31522199999999,Puthiya Road Bypass Junction. Bus Stop to airport,Unknown
StopPoint:node:5757830552,9.982930999999999,76.312831,Kuthappady Bus stop,Unknown
StopPoint:node:5757830553,9.979162599999999,76.3173113,Chalikkavattom Bus Stop,Platform
StopPoint:node:5757830554,9.980383999999999,76.313435,Anjumuri Bus Stop,Unknown
StopPoint:node:5757830555,9.983400999999999,76.330891,Puthenkulangara Shiva Temple Bus Stop,Unknown
StopPoint:node:5757830556,9.958844,76.318379,West Thykoodam Bus Stop,Unknown
StopPoint:node:5757830557,9.967497999999999,76.318945,Vytilla Bus Stop?,Unknown
StopPoint:node:5757830558,9.963251699999999,76.3191691,Powerhouse Bus Stop,Platform
StopPoint:node:5757830560,9.9609633,76.3218467,,Platform
StopPoint:node:5840909716,10.1913939,76.29214429999999,kulatheri bus stop,Platform
StopPoint:node:5857168775,9.8958766,76.29429309999999,Kumbalangy Ferry Jetty,Platform
StopPoint:node:5865718306,9.685328199999999,76.3023475,Thaikkal Bus Stop,Platform
StopPoint:node:5958357616,10.1262344,76.3159081,Palakkal,Unknown
StopPoint:node:5958358407,10.128449999999999,76.3053438,Tvs malikampeedika,Unknown
StopPoint:node:5958358585,10.1292105,76.3001961,Kottapuram,Unknown
StopPoint:node:5958358593,10.127585999999999,76.3092784,Malikampeedika,Unknown
StopPoint:node:5958359385,10.126489099999999,76.3251408,Valyappanpadi,Unknown
StopPoint:node:5970913436,10.188657,76.29114489999999,Mythra Bus Stop,Platform
StopPoint:node:5970913998,10.1855832,76.3212422,,Platform
StopPoint:node:5975126689,10.108561199999999,76.4583233,Pallipadi bus stop,Platform
StopPoint:node:6031832091,10.0727485,76.3336795,Muttom,StopPosition
StopPoint:node:6031832102,10.079233,76.33885719999999,Ambattukavu,StopPosition
StopPoint:node:6031832109,10.087279599999999,76.34278549999999,Companypady,StopPosition
StopPoint:node:6031832114,10.0950337,76.34657899999999,Pulinchodu,StopPosition
StopPoint:node:6031832133,10.11023,76.34932479999999,Aluva,StopPosition
StopPoint:node:6031832178,10.095034199999999,76.346533,Pulinchodu,StopPosition
StopPoint:node:6031832274,10.058590899999999,76.3219352,Kalamassery Town,StopPosition
StopPoint:node:6031832282,10.046714699999999,76.31823849999999,Cochin University,StopPosition
StopPoint:node:6031832283,10.0360339,76.31432749999999,Pathadipalam,StopPosition
StopPoint:node:6031832287,10.0253509,76.3084327,Edapally,StopPosition
StopPoint:node:6031832293,10.015196999999999,76.302301,Changampuzha Park,StopPosition
StopPoint:node:6031832294,10.0064063,76.3047629,Palarivattom,StopPosition
StopPoint:node:6031832301,10.000457299999999,76.2992551,JLN Stadium,StopPosition
StopPoint:node:6031832308,9.9944092,76.2914984,Kaloor,StopPosition
StopPoint:node:6031832313,9.983435499999999,76.28230889999999,M. G. Road,StopPosition
StopPoint:node:6031832324,9.9732684,76.2850557,Maharaja's College,StopPosition
StopPoint:node:6031832330,9.9732636,76.2850132,Maharaja's College,StopPosition
StopPoint:node:6031832397,9.9914176,76.2883245,Town Hall,StopPosition
StopPoint:node:6031832548,10.0466301,76.31815739999999,Cochin University,StopPosition
StopPoint:node:6039119919,10.0696493,76.38564559999999,NAD Kavala,Platform
StopPoint:node:6039131398,10.0523552,76.3822891,KMEA,Platform
StopPoint:node:6043484164,10.0503594,76.3774474,Punchayath Junction,Platform
StopPoint:node:6043510755,10.0463331,76.363693,Thevakkal Bus Stop,Platform
StopPoint:node:6043532762,10.0365115,76.34384179999999,Mundampalam Bus Stop,Platform
StopPoint:node:6043556589,10.065370999999999,76.3899586,Kunjattukara,Platform
StopPoint:node:6055048486,10.153503899999999,76.37349999999999,,Unknown
StopPoint:node:6057196627,10.0651526,76.3898808,Kunjattukara Bus stop,StopPosition
StopPoint:node:6072274720,10.1151045,76.32970279999999,East Kadungalloor Bus Stop,StopPosition
StopPoint:node:6184164257,10.183152,76.22493089999999,Kurumbathuruth Kadav,Unknown
StopPoint:node:6199097354,10.0875047,76.3030481,Edayar,Platform
StopPoint:node:6199097355,10.101979499999999,76.3013699,പനായികുളം,Platform
StopPoint:node:6199119515,10.0778898,76.3184441,"ESI, പാതാളം",Platform
StopPoint:node:6236677902,10.074401499999999,76.3074567,,Unknown
StopPoint:node:6242749071,9.9834461,76.2823511,M. G. Road,StopPosition
StopPoint:node:6242749073,9.9944356,76.2914649,Kaloor,StopPosition
StopPoint:node:6242749074,10.000513,76.29922309999999,JLN Stadium,StopPosition
StopPoint:node:6242749075,10.0063917,76.3047211,Palarivattom,StopPosition
StopPoint:node:6242749076,10.0151971,76.30224419999999,Changampuzha Park,StopPosition
StopPoint:node:6242749077,10.025366199999999,76.3083999,Edapally,StopPosition
StopPoint:node:6242749078,10.0360515,76.31428,Pathadipalam,StopPosition
StopPoint:node:6242749079,10.0586015,76.3218978,Kalamassery Town,StopPosition
StopPoint:node:6242749080,10.072794499999999,76.33362679999999,Muttom,StopPosition
StopPoint:node:6242749081,10.0793881,76.3388435,Ambattukavu,StopPosition
StopPoint:node:6242749082,10.087301,76.3427351,Companypady,StopPosition
StopPoint:node:6300587285,9.939568399999999,76.25563269999999,,Unknown
StopPoint:node:6300587286,9.945148,76.2559735,,Unknown
StopPoint:node:6300587287,9.9473851,76.2445041,To fort kochi,Unknown
StopPoint:node:6300587288,10.0299901,76.3109525,Bus to north,Platform
StopPoint:node:6300587385,9.9414263,76.2558871,,Unknown
StopPoint:node:6300587386,9.9459152,76.2496512,To fort kochi,Unknown
StopPoint:node:6300587387,9.9458868,76.2473239,To fort kochi,Unknown
StopPoint:node:6300587388,9.9572392,76.2423743,To fort kochi,Platform
StopPoint:node:6300587389,9.9652339,76.24356379999999,,Platform
StopPoint:node:6300587390,9.9324634,76.29906249999999,Bus to airport,Platform
StopPoint:node:6300587391,9.936692899999999,76.3099853,Bus to airport,Platform
StopPoint:node:6300587392,9.9377251,76.3178633,Bus to airport,Unknown
StopPoint:node:6300587393,9.9630583,76.31833189999999,Bus to airport,Platform
StopPoint:node:6300587394,9.9680704,76.3179498,Bus to airport,Platform
StopPoint:node:6300587395,9.989499799999999,76.3154984,,Platform
StopPoint:node:6300587485,9.9516504,76.24459949999999,To fort kochi,Platform
StopPoint:node:6300587486,10.0236903,76.30848519999999,Bus to airport,Unknown
StopPoint:node:6300587585,9.9493657,76.3181862,Bus to airport,Platform
StopPoint:node:6491115864,9.9127338,76.4083054,Mythri Bus Stop,Platform
StopPoint:node:6579556388,10.0424358,76.3541091,Kangarappady Bus Stop,Platform
StopPoint:node:6579556389,10.0428743,76.3546884,Kangarappady Bus Stop,Platform
StopPoint:node:6604465433,9.913362099999999,76.2828956,Pashnithodu,Platform
StopPoint:node:6604465434,9.913292799999999,76.2828061,Pashnithodu,Unknown
StopPoint:node:6604480384,9.912057899999999,76.2935936,Pambaimoola,Platform
StopPoint:node:6604489385,9.912182399999999,76.2936804,Pambaimoola,Platform
StopPoint:node:6604489386,9.9125692,76.2923623,Pambaimoola,Platform
StopPoint:node:6777766503,9.9600314,76.3236762,Thykoodam,StopPosition
StopPoint:node:6777766504,9.9599934,76.3236541,Thykoodam,StopPosition
StopPoint:node:6777766505,9.967545699999999,76.3203664,Vyttila,StopPosition
StopPoint:node:6777766506,9.9675709,76.32040409999999,Vyttila,StopPosition
StopPoint:node:6777766507,9.967124799999999,76.3084899,Elamkulam,StopPosition
StopPoint:node:6777766508,9.9671671,76.3084784,Elamkulam,StopPosition
StopPoint:node:6777766509,9.9665812,76.2981877,Kadavanthra,StopPosition
StopPoint:node:6777766510,9.9665419,76.298208,Kadavanthra,StopPosition
StopPoint:node:6777766511,9.9686042,76.28957439999999,Ernakulam South,StopPosition
StopPoint:node:6777766512,9.968639399999999,76.2895667,Ernakulam South,StopPosition
StopPoint:node:6859298874,10.0675705,76.212696,CT office Bus stop,Platform
StopPoint:node:6864553692,10.0008942,76.2346465,Company Peedika,Platform
StopPoint:node:6894484657,10.1542669,76.28936829999999,,Platform
StopPoint:node:6895227823,10.109867,76.2025862,Pallathamkulangara,Platform
StopPoint:node:6895265704,10.113556599999999,76.20161379999999,Cheruvaippu Junction,Platform
StopPoint:node:6914445924,10.133373599999999,76.1960939,Gowreeswaram,Platform
StopPoint:node:6926314826,9.9806741,76.2831666,Padma,Platform
StopPoint:node:6996454939,9.897822399999999,76.3694021,Nadakkavu Bus Stop,Platform
StopPoint:node:7018599468,10.003664599999999,76.2332627,Puthuvype,Platform
StopPoint:node:7018599469,10.0043519,76.2328216,Puthuvype,Platform
StopPoint:node:7018735456,10.0147926,76.2275184,Valappu,Platform
StopPoint:node:7018945497,10.000649899999999,76.2348542,Companypeedika,Platform
StopPoint:node:7019483219,10.0188416,76.22562239999999,Malippuram,Platform
StopPoint:node:7019483220,10.0187084,76.2257818,Malippuram,Platform
StopPoint:node:7019483221,10.0207371,76.2249148,Thekkan Malippuram,Platform
StopPoint:node:7019489991,10.0567175,76.2151595,Veliyatham Parambu,Platform
StopPoint:node:7019489996,10.067586,76.2125993,CT office Bus stop,Platform
StopPoint:node:7019490009,10.0755758,76.2113425,Thayyezhuth Ln,Platform
StopPoint:node:7019490039,10.079178599999999,76.2104453,Aniyal,Platform
StopPoint:node:7019490048,10.082715,76.209693,edavanakad palli,Platform
StopPoint:node:7019490052,10.085334999999999,76.209023,Kpmhs,Platform
StopPoint:node:7019490053,10.0852632,76.2091039,KPM High School,Platform
StopPoint:node:7019490054,10.0877166,76.2084461,AE Office,Platform
StopPoint:node:7019490057,10.0904902,76.2078495,Pazhangad,Platform
StopPoint:node:7019490058,10.0905454,76.2077577,Pazhangad,Platform
StopPoint:node:7019490059,10.093812,76.2068314,Vaachakkal,Platform
StopPoint:node:7019490060,10.0938433,76.2069176,Vaachakkal,Platform
StopPoint:node:7019500464,10.0992379,76.2053727,Illathupadi,Platform
StopPoint:node:7019500465,10.0992128,76.2052925,Illathupadi,Platform
StopPoint:node:7019500470,10.102444199999999,76.2043331,,Platform
StopPoint:node:7019500471,10.1024897,76.2044403,,Platform
StopPoint:node:7019500474,10.104365399999999,76.2038093,Kuzhuppilly,Platform
StopPoint:node:7019500475,10.104374499999999,76.2038924,Kuzhuppilly,Platform
StopPoint:node:7019540813,10.1098273,76.2026683,Pallathamkulangara,Platform
StopPoint:node:7019540815,10.1134364,76.20175069999999,Cheruvaippu Junction,Platform
StopPoint:node:7019570854,10.024013499999999,76.22408759999999,Perumalppadi,Platform
StopPoint:node:7019570855,10.030563299999999,76.2219472,Elamkunnapuzha,Platform
StopPoint:node:7019570856,10.030734299999999,76.2219897,Elamkunnapuzha,Platform
StopPoint:node:7019570857,10.035649099999999,76.2205424,Perumpilly,Platform
StopPoint:node:7019570858,10.0361177,76.2202792,Perumpilly,Platform
StopPoint:node:7019570862,10.0409724,76.2190011,hospital Jn,Platform
StopPoint:node:7019570863,10.0419123,76.2187302,hospital Jn,Platform
StopPoint:node:7019570864,10.0467028,76.21745469999999,Njarackal,Platform
StopPoint:node:7019570866,10.048835,76.21686319999999,Mampilly,Platform
StopPoint:node:7019570867,10.0488549,76.21693619999999,Mampilly,Platform
StopPoint:node:7019570868,10.052781099999999,76.2153857,Maanattu Parambu,Platform
StopPoint:node:7019570869,10.052889799999999,76.2154429,Maanattu Parambu,Platform
StopPoint:node:7019570870,10.0567833,76.2150498,Veliyatham Parambu,Platform
StopPoint:node:7019570871,10.059617099999999,76.2139649,kudungasseri,Platform
StopPoint:node:7019570872,10.059631099999999,76.2140667,kudungasseri,Platform
StopPoint:node:7019570873,10.0633103,76.2131137,kochambalam,Platform
StopPoint:node:7019570874,10.0633289,76.2131832,kochambalam,Platform
StopPoint:node:7019570875,10.0664302,76.2128566,ATH,Platform
StopPoint:node:7019570876,10.0721065,76.21179529999999,Nayarambalam,Platform
StopPoint:node:7019609343,10.1262901,76.1982845,Ayyampilly,Platform
StopPoint:node:7019609344,10.115720699999999,76.2008723,Palli Hospital,Platform
StopPoint:node:7019609345,10.1155832,76.20102109999999,Palli Hospital,Platform
StopPoint:node:7019609346,10.1212096,76.19927469999999,Janatha,Platform
StopPoint:node:7019609347,10.1177574,76.2000745,Vadakekkara,Platform
StopPoint:node:7019609348,10.1282258,76.1977489,Ramavarma,Platform
StopPoint:node:7019609349,10.1282337,76.1978319,Ramavarma,Platform
StopPoint:node:7019609351,10.133228299999999,76.1962035,Gowreeswaram,Platform
StopPoint:node:7019609353,10.1392946,76.19480709999999,Devaswam nada,Platform
StopPoint:node:7019697468,10.138768599999999,76.1944881,Devaswam nada,Platform
StopPoint:node:7021264003,9.9824079,76.2414167,Kaalamukku,Platform
StopPoint:node:7021264004,9.9823641,76.2409292,Kaalamukku,Platform
StopPoint:node:7021264005,9.99025,76.23899089999999,Murikkumpaadam,Platform
StopPoint:node:7021264006,9.9901588,76.23910889999999,Murikkumpaadam,Platform
StopPoint:node:7052794239,10.117642199999999,76.2002476,Vadakekkara,Platform
StopPoint:node:7052794240,10.1396021,76.1991468,,Platform
StopPoint:node:7052794241,10.143190299999999,76.2120193,,Platform
StopPoint:node:7052794242,10.143157,76.2123319,,Platform
StopPoint:node:7052794244,10.1438923,76.2167499,Perumpadanna,Platform
StopPoint:node:7052794245,10.1437566,76.216514,Perumpadanna,Platform
StopPoint:node:7052794250,10.144162399999999,76.2203139,,Platform
StopPoint:node:7052794251,10.1441,76.22055979999999,,Platform
StopPoint:node:7052794252,9.983918599999999,76.2737822,High Court,Platform
StopPoint:node:7052794253,9.9839915,76.27397049999999,High Court,Platform
StopPoint:node:7052794270,9.9914481,76.2655954,Bolgatty Bus Stop,Platform
StopPoint:node:7052794271,9.985801799999999,76.2506849,Vallarpadam,Platform
StopPoint:node:7052794272,9.9859128,76.25049179999999,Vallarpadam,Platform
StopPoint:node:7052794273,9.986603599999999,76.2402536,SeaFood,Platform
StopPoint:node:7052794274,9.9867106,76.2403216,SeaFood,Platform
StopPoint:node:7060336594,9.9735838,76.2810882,,Platform
StopPoint:node:7068947210,9.9676489,76.3049747,Elamkulam,Platform
StopPoint:node:7068947211,9.9678782,76.3050171,elamkulam,Platform
StopPoint:node:7069576483,10.0189738,76.2751083,Vaduthala Valavu,Platform
StopPoint:node:7069576484,10.0170519,76.2762302,Kurishupalli,Platform
StopPoint:node:7069624685,10.017038099999999,76.2761566,Kurishupalli,Platform
StopPoint:node:7069624689,10.0138365,76.276817,Don Bosco,Platform
StopPoint:node:7080379200,10.0103156,76.2301519,School muttam,Platform
StopPoint:node:7083824551,10.010101599999999,76.2301332,School muttam,Platform
StopPoint:node:7083824552,9.994717099999999,76.2371959,Thekkan malippuram,Platform
StopPoint:node:7083824553,9.994796599999999,76.23731409999999,Thekkan malippuram,Platform
StopPoint:node:7084242099,10.145139799999999,76.2349916,Pullamkulam,Platform
StopPoint:node:7084389851,10.140952799999999,76.203369,,Platform
StopPoint:node:7084389852,10.140889999999999,76.2034965,,Platform
StopPoint:node:7086058489,9.987103,76.2536975,,Platform
StopPoint:node:7086058490,9.9868419,76.2535664,,Platform
StopPoint:node:7097576956,9.9329734,76.3830041,Ambadimala Bus Stop,StopPosition
StopPoint:node:7097918159,9.9818807,76.24106909999999,Kaalamukku,Platform
StopPoint:node:7097918160,9.977927099999999,76.24105569999999,,Platform
StopPoint:node:7097918161,9.977850199999999,76.2409918,,Platform
StopPoint:node:7098248597,10.1393801,76.1942517,Devaswam nada,Platform
StopPoint:node:7098248598,10.1434085,76.1920186,Karuthala,Platform
StopPoint:node:7098248599,10.143474399999999,76.1920906,Karuthala,Platform
StopPoint:node:7098248600,10.1482361,76.19018919999999,bakery,Platform
StopPoint:node:7098248601,10.148140999999999,76.1903201,bakery,Platform
StopPoint:node:7098248602,10.150960999999999,76.1899292,smhss,Platform
StopPoint:node:7098248603,10.1507725,76.1899272,smhss,Platform
StopPoint:node:7099505375,10.1260087,76.23735959999999,Kothakulam,Platform
StopPoint:node:7099542859,10.1312021,76.23329149999999,,Unknown
StopPoint:node:7099562807,10.1377487,76.2334419,Thekke Naaluvazhi,Platform
StopPoint:node:7099579495,10.1260224,76.2375156,Kothakulam,Platform
StopPoint:node:7099583258,10.1311754,76.2331358,,Unknown
StopPoint:node:7099924088,10.1494869,76.231762,Paravur private bus stand,Platform
StopPoint:node:7099969096,10.0458459,76.2208205,,Platform
StopPoint:node:7099969097,10.0457694,76.2207791,,Platform
StopPoint:node:7099969098,10.0465992,76.2319563,manjanakkad,Platform
StopPoint:node:7099984219,10.068897999999999,76.2231817,Nedungad,Platform
StopPoint:node:7102015085,10.1564617,76.1873997,Janatha,Platform
StopPoint:node:7102015086,10.1566726,76.18748099999999,Janatha,Platform
StopPoint:node:7102015087,10.160705799999999,76.1844289,Kolothumkadavu,Platform
StopPoint:node:7102015088,10.1608085,76.1845333,Kolothumkadavu,Platform
StopPoint:node:7102015089,10.1641333,76.18295189999999,Convent,Platform
StopPoint:node:7102015090,10.1641686,76.18307589999999,Convent,Platform
StopPoint:node:7102015091,10.1667395,76.1814967,Pallippuram Palli,Platform
StopPoint:node:7102015092,10.166841699999999,76.1813945,Pallippuram Palli,Platform
StopPoint:node:7102015139,10.168908199999999,76.1806478,Police Station,Platform
StopPoint:node:7102015140,10.1687772,76.18078679999999,Police Station,Platform
StopPoint:node:7102015141,10.1706516,76.1787566,Angaadi,Platform
StopPoint:node:7102015142,10.1707786,76.1788162,Angaadi,Platform
StopPoint:node:7102015143,10.1712256,76.1774758,Mani Bazar,Platform
StopPoint:node:7102015144,10.171505999999999,76.1772621,Mani Bazar,Platform
StopPoint:node:7102015145,10.1741476,76.1758885,Beach Road,Platform
StopPoint:node:7102015146,10.174315799999999,76.1759077,Beach Road,Platform
StopPoint:node:7102015147,10.1798428,76.17252739999999,Ayyaar Valavu,Platform
StopPoint:node:7102015148,10.179957199999999,76.1725684,Ayyaar Valavu,Platform
StopPoint:node:7102128834,10.123501,76.2387995,Mahilappadi,Platform
StopPoint:node:7102128835,10.123653,76.2388447,Mahilappadi,Platform
StopPoint:node:7102133726,10.0307663,76.2390861,Pukkaad,Platform
StopPoint:node:7102134354,10.1399565,76.2295907,Thekke Naaluvazhi,Platform
StopPoint:node:7102134410,10.1225348,76.2345911,Sankaparambu,Platform
StopPoint:node:7102134411,10.122444,76.2345572,Sankaparambu,Platform
StopPoint:node:7102134413,10.1252984,76.23052369999999,kshemodaya sangam,Platform
StopPoint:node:7102134414,10.1253981,76.2305865,kshemodaya sangam,Platform
StopPoint:node:7102134432,10.1272457,76.2293255,,Platform
StopPoint:node:7102134433,10.127302,76.22941039999999,,Platform
StopPoint:node:7102134434,10.1293274,76.22860399999999,Nandhyattukunnam,Platform
StopPoint:node:7102134435,10.1293867,76.2286922,Nandhyattukunnam,Platform
StopPoint:node:7102134436,10.1320245,76.2278134,Kaalikulangara Temple,Platform
StopPoint:node:7102134437,10.132109699999999,76.2278766,Kaalikulangara Temple,Platform
StopPoint:node:7102134475,10.1351255,76.2257978,Ameparambu,Platform
StopPoint:node:7102134476,10.1351012,76.22588089999999,Ameparambu,Platform
StopPoint:node:7130769338,9.972249,76.2861966,Maharajas Ground,Platform
StopPoint:node:7130826462,9.9647842,76.2887235,Valanjambalam,Platform
StopPoint:node:7131595937,9.966629,76.29870009999999,Kadavanthra,Platform
StopPoint:node:7131595938,9.965505799999999,76.29429429999999,Panampilly Nagar,Platform
StopPoint:node:7131609339,9.9638534,76.2860633,Pallimukk,Platform
StopPoint:node:7131609340,9.9676381,76.28087359999999,,Platform
StopPoint:node:7133380913,10.0836579,76.31393179999999,പറവൂര്‍ എടയാര്‍ Bus Stop,Platform
StopPoint:node:7151947331,10.1415319,76.2366632,Peruvaaram,Platform
StopPoint:node:7151947332,10.1413756,76.2368699,Peruvaaram,Platform
StopPoint:node:7151965119,10.1230692,76.2452267,Cheriyappilly,Platform
StopPoint:node:7172652013,10.1110507,76.2439943,Kottuvalli North,Platform
StopPoint:node:7175749744,9.9755437,76.28048919999999,,Platform
StopPoint:node:7175749745,9.9683799,76.2983924,,Platform
StopPoint:node:7175749752,9.9674794,76.3000174,,Platform
StopPoint:node:7175922504,9.9680792,76.312784,Janatha,Platform
StopPoint:node:7184625487,9.9993388,76.22119529999999,Light House,Platform
StopPoint:node:7195273286,10.1006466,76.2641179,ആലുവ & പാതാളം ബസ് സ്റ്റോപ്പ്‌,Platform
StopPoint:node:7195273583,10.084521299999999,76.3140588,ആലുവ ബസ് സ്റ്റോപ്പ്‌,Platform
StopPoint:node:7195273584,10.0835556,76.3148016,"പാതാളം,എറണാകുളം, കളമശ്ശേരി ബസ് സ്റ്റോപ്പ്‌",Platform
StopPoint:node:7232403907,10.196506099999999,76.3882553,Angamaly TB Junction Bus Stop,Platform
StopPoint:node:7232403908,10.197834499999999,76.3967179,Yoodhapuram Bus Stop,Platform
StopPoint:node:7232405395,10.199686,76.39955859999999,Subrahmanya Swami Temple Bus Stop,Platform
StopPoint:node:7273749411,9.6818407,76.36316149999999,Velliyakulam Bus Stop,Platform
StopPoint:node:7273749412,9.6828948,76.3596764,Varanad Bus Stop,Platform
StopPoint:node:7273749413,9.683116,76.35733069999999,lisue nagar bus stop,Platform
StopPoint:node:7273749414,9.6849548,76.3516822,kalikulam bus stop,Platform
StopPoint:node:7273749415,9.6855078,76.347657,keerthi bus stop,Platform
StopPoint:node:7273749416,9.6858741,76.3455463,Girls junction cherthala bus stop,Platform
StopPoint:node:7273749417,9.6859398,76.34241519999999,cherthala ambalam bus stop,Platform
StopPoint:node:7273749418,9.6823453,76.3416965,hospital bus stop,Platform
StopPoint:node:7273749419,9.682646,76.3406797,hospital bus stop,Platform
StopPoint:node:7273749421,9.689795799999999,76.34267539999999,court junction bus stop,Platform
StopPoint:node:7273749422,9.690398199999999,76.342675,court junction bus stop,Platform
StopPoint:node:7273749423,9.6904174,76.3430922,court junction bus stop,Platform
StopPoint:node:7273749424,9.6905504,76.341049,Iron bridge bus stop,Platform
StopPoint:node:7273771223,9.6898851,76.34571439999999,kuppi kavala bus stop,Platform
StopPoint:node:7294644885,10.0755901,76.2112602,Thayyezhuth Ln,Platform
StopPoint:node:7318426693,10.1886762,76.3927786,East Nagar (oliyaan Kappela),Platform
StopPoint:node:7318426735,10.187028399999999,76.3957595,Areekal,Platform
StopPoint:node:7318526551,9.963766699999999,76.3743569,Hindustan Oil Corporation Bus Stop,Platform
StopPoint:node:7318684969,9.945986,76.3684571,Thiruvankulam Panchayat Bus Stop,Platform
StopPoint:node:7318711520,9.8316229,76.4689851,Newsprint Nagar Bus stop,Platform
StopPoint:node:7318711521,9.827164999999999,76.47638289999999,Police Station,Platform
StopPoint:node:7318711522,9.8270281,76.4783616,Karikode,Platform
StopPoint:node:7331575715,9.9521113,76.3405051,,Platform
StopPoint:node:7368704028,10.1672975,76.2129594,Chakamarassery Bus Stop,Unknown
StopPoint:node:7376093217,9.7436537,76.3631418,Engineering College,Platform
StopPoint:node:7376093227,9.7391291,76.3626723,Ottapunna Bus Stop,Platform
StopPoint:node:7376093228,9.7388885,76.3627233,Ottappunna Bus Stop,Platform
StopPoint:node:7379117435,9.7472701,76.36339869999999,Vellimuttom,Platform
StopPoint:node:7379117470,9.7067211,76.35715739999999,Chenganda Palam stop,Platform
StopPoint:node:7385356083,10.0928728,76.2663741,തിരുമുപ്പം ബസ് സ്റ്റോപ്പ്‌,Platform
StopPoint:node:7413964049,10.1138993,76.34604709999999,തോട്ടക്കാട്ടുകര,Platform
StopPoint:node:7448218411,10.0245079,76.44969979999999,perumbavoor- kolenchery road,Unknown
StopPoint:node:7452736590,10.0246435,76.4501433,bus stop to muvattupuzha,Unknown
StopPoint:node:7452971120,10.0210438,76.44812809999999,,Platform
StopPoint:node:7453750027,10.0362621,76.4082322,kizhakkambalam,Unknown
StopPoint:node:7456890921,10.0363379,76.4082414,bus stop to muvatupuzha and perumbavoor,Unknown
StopPoint:node:7456890927,10.036168499999999,76.4082525,bus stop to ernakulam,Unknown
StopPoint:node:7456890941,10.036147999999999,76.40800229999999,bus stop to aluva,Unknown
StopPoint:node:7456890945,10.0375076,76.4108856,Kizhakkambalam Market Bus Stop,Platform
StopPoint:node:7459381031,9.936996299999999,76.318618,bus stop to tripunithura,Platform
StopPoint:node:7463839813,9.9675435,76.33938719999999,Pisharikovil Bus Stop,Platform
StopPoint:node:7463909910,10.0844772,76.3476457,Darussalam Junction,Platform
StopPoint:node:7464400088,9.9204087,76.274048,Palluruthy Veli Bus Stop,Platform
StopPoint:node:7465152253,10.1274797,76.4727655,Kanjirakkadu,Platform
StopPoint:node:7465152254,10.1266493,76.4731436,,Platform
StopPoint:node:7465185328,10.1156557,76.48182589999999,,Platform
StopPoint:node:7465185329,10.1175442,76.48083489999999,,Platform
StopPoint:node:7465185348,10.1166745,76.4758781,,Platform
StopPoint:node:7465185358,10.1141183,76.4754765,,Platform
StopPoint:node:7465359344,10.1948008,76.3862742,,Platform
StopPoint:node:7465374247,10.0883142,76.3432383,Companypady,Platform
StopPoint:node:7465399689,10.0882451,76.3460805,Manthrakkal Junction,Platform
StopPoint:node:7465695674,9.743136699999999,76.31872659999999,,Platform
StopPoint:node:7466613954,9.946907699999999,76.353231,Railway station,Platform
StopPoint:node:7466785122,9.976805299999999,76.28527919999999,,Platform
StopPoint:node:7466807493,9.9238602,76.35673,Valav,Platform
StopPoint:node:7466853226,9.9063352,76.36718859999999,Valiyakulam,Platform
StopPoint:node:7467524503,10.130732199999999,76.47046,Pallippady,Platform
StopPoint:node:7467524504,10.1360232,76.46764999999999,BUS STOP,Platform
StopPoint:node:7467524505,10.136052,76.4672018,,Platform
StopPoint:node:7467524506,10.1357093,76.46777329999999,,Platform
StopPoint:node:7467587514,9.7288778,76.3187686,,Platform
StopPoint:node:7467596222,9.7291712,76.3189886,,Platform
StopPoint:node:7467762617,10.1521062,76.4509497,Okkal,Platform
StopPoint:node:7467857012,10.004534,76.4561866,bus stop to pattimattom,Unknown
StopPoint:node:7467896054,10.092504199999999,76.34571059999999,Garage Bus stop,Platform
StopPoint:node:7469319801,10.0375296,76.3385639,BMC Bus Stop,Platform
StopPoint:node:7469340151,10.044448299999999,76.3176324,Panchayath Bus Stop,Platform
StopPoint:node:7469340152,10.044417,76.31731479999999,Panchayath Bus Stop,Platform
StopPoint:node:7469568985,9.9486669,76.34737559999999,,Platform
StopPoint:node:7470223494,10.0253731,76.44960809999999,Bus stop to Perumbavoor,Platform
StopPoint:node:7470264338,9.9292208,76.4183743,,Platform
StopPoint:node:7470346828,10.1829409,76.4103822,,Platform
StopPoint:node:7470358924,9.786827899999999,76.4400971,Carvy Thalayolaparambu,Platform
StopPoint:node:7470386103,9.999599,76.4588266,,Unknown
StopPoint:node:7470446272,10.0695877,76.3635091,Combara Junction,Platform
StopPoint:node:7471960664,10.0193227,76.2913971,Punnackal Bus Stop,Platform
StopPoint:node:7472324177,9.9664295,76.2988649,Kadavantra Bus Stop,Platform
StopPoint:node:7472717779,10.1162741,76.495824,,Platform
StopPoint:node:7472717780,10.1161094,76.49608599999999,,Platform
StopPoint:node:7472799221,10.033268099999999,76.32524939999999,Pipeline,Platform
StopPoint:node:7473941856,9.7243955,76.3180907,,Platform
StopPoint:node:7474155911,10.1674359,76.43649529999999,,Platform
StopPoint:node:7474632252,9.9854652,76.3520344,Shappum Padi,Platform
StopPoint:node:7475542066,10.033507,76.4328867,alinchuvadu bus stop (location on road),Unknown
StopPoint:node:7475612939,9.9652534,76.34028649999999,,Platform
StopPoint:node:7475628632,9.8943006,76.2960332,Kerala State Road Transport Cooperation Bus Stop,Platform
StopPoint:node:7475629998,9.983908399999999,76.33019639999999,kozhivettomvely,Platform
StopPoint:node:7475635171,9.984032599999999,76.3302385,,Platform
StopPoint:node:7475665490,9.8949094,76.2962151,Edakochi Private Bus Stand,StopPosition
StopPoint:node:7481820390,10.196691399999999,76.25168889999999,,Platform
StopPoint:node:7482029718,10.1422197,76.3091918,,Unknown
StopPoint:node:7482407130,9.9855643,76.4284535,Vadavucode Bus Stop,Platform
StopPoint:node:7482407516,9.9712008,76.4268586,Kavumthazham Bus Stop,Platform
StopPoint:node:7484079347,10.1630262,76.4348134,,Platform
StopPoint:node:7484554598,10.1950338,76.26731629999999,,Platform
StopPoint:node:7485838122,10.0374354,76.4106832,Kizhakkambalam Market,Platform
StopPoint:node:7486387302,10.189404999999999,76.3237051,parakkadavu bus stop,Unknown
StopPoint:node:7486498537,9.923325,76.3988983,,Platform
StopPoint:node:7489020806,10.1635952,76.4056164,DYFI waiting shed,Platform
StopPoint:node:7489223443,10.163981699999999,76.40257969999999,nss bus stop,Platform
StopPoint:node:7489965846,10.039209699999999,76.4048578,Twenty 20 Nagar,Platform
StopPoint:node:7490855556,10.1728201,76.45398089999999,"Radio Kavala,Mekalady",Platform
StopPoint:node:7492238746,10.062036299999999,76.3953064,Wire Ropes,Platform
StopPoint:node:7494989397,9.7366984,76.31823279999999,BUS STOP,Platform
StopPoint:node:7496688161,10.0889147,76.3885389,Rajagiri Hospital,Platform
StopPoint:node:7498634946,9.8520918,76.38509499999999,,Platform
StopPoint:node:7500481958,9.9450161,76.2579155,,Platform
StopPoint:node:7500983389,10.0226101,76.3067098,edappally church,Platform
StopPoint:node:7500983390,10.0206912,76.3058368,edappally,Platform
StopPoint:node:7503210040,10.054725999999999,76.32188889999999,,Platform
StopPoint:node:7505440803,10.0209156,76.3350043,NGO Quarters Bus Stop,Platform
StopPoint:node:7505440821,10.0181395,76.3459129,kakkanad bus stop,Platform
StopPoint:node:7505816723,10.1779539,76.4597136,Kottamam,Platform
StopPoint:node:7506974638,10.0636633,76.2772205,Lourdh Matha Bus Stop,Platform
StopPoint:node:7508378939,9.8460275,76.4874148,valappil paalam,Platform
StopPoint:node:7509855503,9.8452538,76.48769109999999,,Platform
StopPoint:node:7517795112,10.155801799999999,76.3309526,palaprassery bus stop,Unknown
StopPoint:node:7518953939,10.153467899999999,76.3398788,Manjaly Athani Bus Stop,Platform
StopPoint:node:7518953970,10.153445699999999,76.3407191,Chengamanad Mala Kanakkankadavu Bus Stop,Platform
StopPoint:node:7519008680,10.1535929,76.3405614,Chengamanad Aluva Angamaly Stop,Platform
StopPoint:node:7523076311,10.0338792,76.2940285,Amrita Institute of Medical Science-Kerala State Road Transport Corporation Bus Shelter,Platform
StopPoint:node:7528686109,10.1675519,76.3549208,karakkattukkunnu aluva manjaly busstop,Unknown
StopPoint:node:7735573723,10.1775127,76.31135359999999,Kochukadavu,Platform
StopPoint:node:7751500404,10.1769486,76.30663129999999,Ayroor school,Platform
StopPoint:node:7756984451,10.1783735,76.3246541,,Platform
StopPoint:node:7813571576,9.9327084,76.3749345,Kottayathupara Bus Stop,Platform
StopPoint:node:7817815902,9.8486847,76.40784409999999,,Platform
StopPoint:node:7817815903,9.8497643,76.4070634,,Platform
StopPoint:node:7817815904,9.8532484,76.4023684,,Platform
StopPoint:node:7817815905,9.853684,76.4018893,,Platform
StopPoint:node:7817815906,9.8517479,76.38541459999999,,Platform
StopPoint:node:7817815907,9.8520185,76.3852486,,Platform
StopPoint:node:7820657673,9.9360734,76.3752794,Kadungamangalam Bus Stop,Platform
StopPoint:node:7820703156,9.932778599999999,76.37936619999999,Colonypady Bus Stop,Platform
StopPoint:node:7820807165,9.9269116,76.373842,Kureekkad Bus Stop,Platform
StopPoint:node:7883924232,9.9510771,76.3310717,Pettah,StopPosition
StopPoint:node:7883924234,9.951105499999999,76.3311603,Pettah,StopPosition
StopPoint:node:7903258849,9.9167235,76.316943,,Platform
StopPoint:node:7903298808,9.8776348,76.3039299,,Platform
StopPoint:node:7903319804,9.922793799999999,76.3173175,,Platform
StopPoint:node:7907903043,9.778713699999999,76.39514,Pithrukunnam Bus stop,Platform
StopPoint:node:7907903053,9.781585999999999,76.3950797,Nanadom,Platform
StopPoint:node:7907903054,9.7869087,76.3948825,Itthippuzha,Platform
StopPoint:node:7914264770,9.9160144,76.3172045,VPS Lakeshore Bus Stop,Platform
StopPoint:node:7921767699,10.130275,76.3454936,Kunnumpuram Bus Stop,Platform
StopPoint:node:7921952826,10.129783699999999,76.3518091,Desom Bus Stop,Platform
StopPoint:node:7922055453,10.1309715,76.35228049999999,Desom Bus Stop,Platform
StopPoint:node:7923747352,10.187419499999999,76.2454655,,Platform
StopPoint:node:7925449630,10.156312999999999,76.4461278,Pallipady,Platform
StopPoint:node:7925491825,10.1596274,76.4427907,Thannipuzha Bus Stop,Platform
StopPoint:node:7925498377,10.1544001,76.44832269999999,Nambilly,Platform
StopPoint:node:7925511769,10.1633604,76.4481187,Union Kavala,Platform
StopPoint:node:7925858657,9.863622699999999,76.3989938,Old Panchayath Bus Stop,Platform
StopPoint:node:7931242393,9.8540286,76.4019801,Kanjiramattom Bus Stop,Platform
StopPoint:node:7931242515,9.855748,76.4016817,,Platform
StopPoint:node:8024451818,10.0549435,76.3217703,,Platform
StopPoint:node:8025440498,10.0482964,76.3185735,CUSAT Signal Bus Stop,Platform
StopPoint:node:8041256775,9.782162699999999,76.3469131,,Platform
StopPoint:node:8041360788,9.77431,76.3408738,,Platform
StopPoint:node:8049147261,9.8186202,76.3507954,,Unknown
StopPoint:way:273211658,10.1492312,76.23163029999999,Paravur private bus stand,Platform
StopPoint:way:362823775,10.1505353,76.2681444,Manjaly,Unknown
StopPoint:way:483021729,9.967632499999999,76.2918265,"Platform 4,5",Platform
StopPoint:way:483021730,9.9676536,76.2916415,"Platform 2,3",Platform
StopPoint:way:483021732,9.9673584,76.29150729999999,Platform 1,Platform
StopPoint:way:483021733,9.9667102,76.2920558,,Platform
StopPoint:way:486713334,10.150627799999999,76.21837649999999,St. Aloysious,Unknown
StopPoint:way:619511552,10.113760599999999,76.46451549999999,Palakkatuthazham Private Bus Stop,Platform
StopPoint:way:699375841,10.195945,76.3858676,,Platform
StopPoint:way:756930420,9.9959071,76.2853231,,Platform
StopPoint:way:798770267,10.0531168,76.3521647,,Platform
StopPoint:way:798830404,9.8107694,76.3527435,Kunjaram Girijan Colony Road,Platform
StopPoint:way:799179580,10.164595,76.43991849999999,,Platform
StopPoint:way:800408912,9.979622299999999,76.4726779,,Platform
StopPoint:way:801353542,9.9899893,76.40121959999999,,Platform
StopPoint:way:804574934,9.8065409,76.3532069,,Platform
StopPoint:way:804822738,9.9783327,76.28856999999999,,Platform
StopPoint:way:849489488,10.0517266,76.3344395,Toshiba Bus stop,Platform
StopPoint:way:853005083,10.0644104,76.3279144,,Platform
StopPoint:way:860990850,10.1978755,76.2057916,kottappuram boat jetty,Platform
StopPoint:way:861092053,10.197648299999999,76.2062353,,Platform
