stop_point_id,lat,lon,name,first_stop_area_id
StopPoint:node:343716182,10.1030076,76.35576019999999,Thrikkunnathu Seminary,
StopPoint:node:622522403,9.9531189,76.38995369999999,Sasthammugal,
StopPoint:node:622536423,9.9390109,76.41855749999999,Kuppethazham,
StopPoint:node:622536426,9.933668899999999,76.42331039999999,Thiruvaniyoor Kochangadi,
StopPoint:node:622536442,9.9436977,76.4012304,Tondanpara,
StopPoint:node:622536446,9.9397137,76.4052537,Kumbhappilly,
StopPoint:node:622536448,9.942012199999999,76.4105538,Vandipetta,
StopPoint:node:622536449,9.9397824,76.4133647,Valavu,
StopPoint:node:622536458,9.9474175,76.39529739999999,Vennikkulam,
StopPoint:node:944902406,9.977936,76.334205,Labour Corner,
StopPoint:node:976452403,10.0281279,76.3111133,Bus Stop,
StopPoint:node:982135818,9.9734483,76.2440927,Vypin,
StopPoint:node:1049713235,10.1395161,76.1990351,,
StopPoint:node:1049713241,10.1445191,76.2264466,KMK Jn,
StopPoint:node:1190898939,9.9432792,76.3740175,Thiruvankulam Junction,
StopPoint:node:1497681417,10.0444473,76.3964925,Pazhanganad,
StopPoint:node:1525970903,10.073023599999999,76.3991994,Confident ATIK III,
StopPoint:node:1725434727,9.890457999999999,76.3120916,Kumbalam South,
StopPoint:node:1755918981,10.034550999999999,76.2720485,,
StopPoint:node:2101122696,9.900362699999999,76.3844498,"Mulanthuruthy, Pallithazham",
StopPoint:node:2101122702,9.9016755,76.3931108,"Mulanthuruthy, Karavatte Kurish",
StopPoint:node:2101122705,9.9137798,76.4120149,Thuppampady,
StopPoint:node:2101136078,9.920638799999999,76.4086246,Thalacode,
StopPoint:node:2101143428,9.9145566,76.4215018,Vettikkal,
StopPoint:node:2115941772,10.044870699999999,76.31732269999999,Kalamassery Municipality,
StopPoint:node:2115941782,10.0446182,76.3177798,Kalamassery Municipality,
StopPoint:node:2376855121,9.9517396,76.3583973,Karingachira,
StopPoint:node:2376866788,9.9469449,76.3533443,Railway Station,
StopPoint:node:2391343016,9.952093,76.25364139999999,Koovapadam Bus stop,
StopPoint:node:2391343017,9.952029,76.25236009999999,Cochin College Bus stop,
StopPoint:node:2391343018,9.9520508,76.25572249999999,,
StopPoint:node:2391343019,9.951912,76.2576833,Panayappally,
StopPoint:node:2391343020,9.9577841,76.25795959999999,Aanavathil Bus stop,
StopPoint:node:2391343021,9.9557512,76.2579174,,
StopPoint:node:2391343022,9.9593644,76.258061,Star junction bus stop,
StopPoint:node:2391343057,9.9494846,76.2557001,Panayappally bus stop,
StopPoint:node:2580734253,10.0054992,76.3128382,PipeLine Junction,
StopPoint:node:2580734650,9.9989727,76.3137629,EMC Bus Stop,
StopPoint:node:2580734682,9.999015,76.3140901,EMC Bus Stop,
StopPoint:node:2635014700,9.9310677,76.2675028,Bus to Alleppey,
StopPoint:node:2712142797,9.9783505,76.276848,Menaka,
StopPoint:node:2712147178,9.9681464,76.2880627,Ernakulam South,
StopPoint:node:2744190416,10.0189218,76.2748891,Vaduthala Valavu,
StopPoint:node:2744199202,10.0137726,76.276929,Don Bosco,
StopPoint:node:2744199206,10.013149499999999,76.2767624,Vaduthala Gate,
StopPoint:node:2744199210,10.006632999999999,76.2782682,Lourde's Hospital,
StopPoint:node:2744199215,10.0067048,76.27843399999999,Lourde's Hospital,
StopPoint:node:2744203515,10.0012253,76.2795398,Pachalam,
StopPoint:node:2744203523,10.001257599999999,76.2790758,Pachalam,
StopPoint:node:2744203531,9.9959574,76.2805364,Ayyappankavu,
StopPoint:node:2780838959,9.9945358,76.2918282,Kaloor Stand,
StopPoint:node:2780917203,10.1449847,76.23202309999999,KSRTC Bus Stand,
StopPoint:node:2858643010,10.1674518,76.2131217,Chakamarassery,
StopPoint:node:2858643013,10.1564108,76.2135426,Pattanam Kavala,
StopPoint:node:2858684139,10.181785,76.2047335,Labour Junction,
StopPoint:node:2923441825,9.967761999999999,76.3218957,Vyttila Mobility Hub Private Stand,
StopPoint:node:2923441826,9.969215,76.3216194,Vyttila Mobility Hub,
StopPoint:node:2928886789,10.0717346,76.2119072,Nayarambalam,
StopPoint:node:2965439530,10.1483551,76.2449173,Vedimara,
StopPoint:node:2965446278,10.149125399999999,76.2345361,Chendamangalam Junction,
StopPoint:node:2965448787,10.146376499999999,76.2533531,Mannam,
StopPoint:node:2965453933,10.1458484,76.2569812,Paarappuram,
StopPoint:node:2965463994,10.133282099999999,76.27508139999999,Karuchira,
StopPoint:node:2965467030,10.1308151,76.2874664,Purapillikavu,
StopPoint:node:2965468064,10.131110099999999,76.2824669,Thattampady,
StopPoint:node:2965468920,10.1319284,76.2791508,Marottichuvadu,
StopPoint:node:2965470242,10.1302825,76.2931358,Karumaloor,
StopPoint:node:3149467915,10.0423949,76.4035155,Thamarachal Bus Stop,
StopPoint:node:3276153651,9.9629067,76.3183732,Kallada Bus Stop,
StopPoint:node:3367437300,10.1004806,76.26385499999999,Koonammavu Bus Stop,
StopPoint:node:3367438603,10.0789142,76.2745096,SNDP Bus Stop,
StopPoint:node:3676223741,10.148579999999999,76.2283668,old bus stop,
StopPoint:node:3676241133,10.1264475,76.3209838,mariyapadi,
StopPoint:node:3676244636,10.136827,76.2696768,Manakkapadi,
StopPoint:node:3676244647,10.1485409,76.2278556,namboodrichanda aal,
StopPoint:node:3676397041,10.1492662,76.2355712,Chendamangalam Junction,
StopPoint:node:3711605443,10.1488639,76.23051219999999,Civil Station,
StopPoint:node:3711605445,10.1487713,76.229096,Old Bus Stand,
StopPoint:node:3728972288,10.1844139,76.1938248,tharayil kavala,
StopPoint:node:3736262611,9.9706411,76.31795009999999,Vyttila Bus Stop,
StopPoint:node:3813525947,10.0397534,76.30073209999999,stop,
StopPoint:node:3842288158,10.0096153,76.3037762,Mamangalam,
StopPoint:node:3844271357,10.1498479,76.2348281,Chendamangalam Kavala,
StopPoint:node:3846966457,10.1263087,76.3293535,,
StopPoint:node:3864767757,10.0212159,76.3346249,NGO Quarters Bus Stop,
StopPoint:node:3870727313,10.0145846,76.2277549,Valappu,
StopPoint:node:3870727314,10.0207973,76.2248102,Thekkan Malippuram,
StopPoint:node:3870727315,10.025438399999999,76.2236369,Perumalppadi,
StopPoint:node:3886536252,9.9833176,76.274318,High Court Junction,
StopPoint:node:3996656188,9.950291799999999,76.2921288,Thevara Junction,
StopPoint:node:3996661158,9.9591775,76.28900829999999,Ravipuram,
StopPoint:node:4102699591,9.9793907,76.476237,Medical Mission,
StopPoint:node:4102711889,9.9552333,76.3960251,Panikkarupadi,
StopPoint:node:4118630290,10.1684934,76.3402155,poikkattussery bus stop,
StopPoint:node:4118630691,10.175242599999999,76.3304103,hospital,
StopPoint:node:4118630889,10.178728099999999,76.3302319,kurumassery,
StopPoint:node:4122530889,10.188161599999999,76.328169,moozhikulam bus stop,
StopPoint:node:4122531089,10.1899528,76.3236028,parakkadavu bus stop,
StopPoint:node:4270131792,10.1308404,76.3902997,"Thettaly Bus Stop , Chowara",
StopPoint:node:4270140391,10.1319073,76.39943869999999,"Kaipra bus Stop , Sreemoolanagaram",
StopPoint:node:4279628189,10.1903408,76.4764861,"Plappilly Kavala Bus Stop, Neeleeswaram Mundangamattom Road",
StopPoint:node:4290205591,10.1222049,76.3667615,Gandhipuram Bus Stop,
StopPoint:node:4290219991,10.1857337,76.39740739999999,Nayathode Bus Stop,
StopPoint:node:4291964894,10.081181599999999,76.34819739999999,Kunnatheri Junction,
StopPoint:node:4291964895,10.1282269,76.372571,Kondotty Bus Stop,
StopPoint:node:4292013891,10.1278731,76.3693424,Purayar Bus Stop,
StopPoint:node:4292039789,10.0090933,76.31688799999999,"Chembumukku Bus Stop , Kakkanad",
StopPoint:node:4300226389,10.1100516,76.3724534,"Thottumugham , Aluva",
StopPoint:node:4332184553,9.9498283,76.33175829999999,Petta Bus Stop,
StopPoint:node:4351633724,10.1775036,76.3033311,Aattupuram,
StopPoint:node:4351633725,10.176903,76.30670529999999,Ayroor School,
StopPoint:node:4351633726,10.177061499999999,76.309303,Oozhan Kavala,
StopPoint:node:4354393904,10.1780796,76.2109011,Andipillikavu,
StopPoint:node:4354393905,10.1787139,76.2086774,Madaplathuruth,
StopPoint:node:4361725219,10.016383,76.3023875,Edappally High School,
StopPoint:node:4419870996,10.1185586,76.3433527,Paravoor Kavala,
StopPoint:node:4434143093,10.1534744,76.3400046,Chengamanad,
StopPoint:node:4434161789,10.1668326,76.461265,Onampilly,
StopPoint:node:4434161890,10.1534736,76.3404527,Chegamanad,
StopPoint:node:4434161990,10.1535484,76.340413,,
StopPoint:node:4434162289,10.1559262,76.330283,Palapprassery,
StopPoint:node:4437337990,10.156779,76.3263336,Chunkam Bus Stop,
StopPoint:node:4471324994,10.0228068,76.34114149999999,Mavelipuram Junction Bus Stop,
StopPoint:node:4471324995,10.022925599999999,76.3414634,Mavelipuram Junction Bus Stop,
StopPoint:node:4473580196,9.9073744,76.36663999999999,"Valiyakulam, Udayamperoor",
StopPoint:node:4548818893,10.0550777,76.3227052,HMT Junction,
StopPoint:node:4548830490,10.054534799999999,76.32199659999999,HMT Junction,
StopPoint:node:4561240974,9.9717986,76.2822067,General hospital,
StopPoint:node:4639553292,9.960856399999999,76.2428762,Chirattapalam,
StopPoint:node:4639553293,9.9633006,76.2431368,,
StopPoint:node:4641790492,10.0215163,76.3063792,,
StopPoint:node:4643976597,10.1890997,76.20162359999999,Moothakunnam,
StopPoint:node:4648279091,9.96682,76.31931689999999,,
StopPoint:node:4660701152,10.1885739,76.2015864,Moothakunnam,
StopPoint:node:4660701153,10.189625999999999,76.2020665,Moothakunnam,
StopPoint:node:4665138938,10.1452796,76.2267225,KMK Jn to Aluva,
StopPoint:node:4665138939,10.144698,76.22792919999999,KMK Jn,
StopPoint:node:4675300271,10.174714999999999,76.2999907,shap padi,
StopPoint:node:4694147800,10.182976199999999,76.1737393,Munambam Ferry,
StopPoint:node:4695161877,10.0804967,76.33918899999999,Ambattukavu,
StopPoint:node:4708279359,10.0622109,76.28810469999999,Cheranelloor Signal,
StopPoint:node:4708279361,10.1148268,76.2598095,Naalam Mile,
StopPoint:node:4708279363,10.1218792,76.2546248,,
StopPoint:node:4708279366,10.1274239,76.2434083,KandaKarnanVeli,
StopPoint:node:4708279367,10.133788299999999,76.2402982,Vazhikulangara,
StopPoint:node:4708279877,10.112461399999999,76.2601715,Kochal,
StopPoint:node:4708733903,10.078248499999999,76.27557019999999,SNDP,
StopPoint:node:4716589462,10.155043599999999,76.29524479999999,Kunnukara,
StopPoint:node:4716589463,10.1538401,76.2735362,Thelathuruth,
StopPoint:node:4716591373,10.154947499999999,76.27995969999999,,
StopPoint:node:4716858150,10.1499588,76.2171031,Kottakavu Palli,
StopPoint:node:4716858152,10.1561769,76.3112166,Kuttiyal,
StopPoint:node:4729063042,10.1972875,76.20095289999999,V.P. Thuruth,
StopPoint:node:4729063046,10.121188799999999,76.19912149999999,Janatha,
StopPoint:node:4729063048,10.0827527,76.2096157,edavanakad palli,
StopPoint:node:4729063216,10.1263354,76.1983715,Ayyampilly,
StopPoint:node:4729063219,10.0790683,76.2105579,Aniyal,
StopPoint:node:4729063228,10.066506,76.2129234,ATH,
StopPoint:node:4729063558,10.0472805,76.2171948,Njarackal,
StopPoint:node:4729546009,10.087694299999999,76.208524,AE Office,
StopPoint:node:4731124415,10.1480679,76.22473959999999,Municipal Junction,
StopPoint:node:4731124416,10.1500428,76.2206028,Paravur Market,
StopPoint:node:4731124902,10.186386899999999,76.2023631,,
StopPoint:node:4731124903,10.179205699999999,76.22627349999999,Vadakkumpuram,
StopPoint:node:4731124904,10.1505785,76.26826539999999,Manjaly,
StopPoint:node:4731125089,10.1688849,76.2342618,,
StopPoint:node:4731125112,10.1497458,76.2608503,,
StopPoint:node:4731125113,10.1485381,76.22632279999999,,
StopPoint:node:4731125114,10.151366,76.2233285,Kannankulangara,
StopPoint:node:4731125115,10.1492693,76.2182922,,
StopPoint:node:4731125540,10.188386,76.2171176,,
StopPoint:node:4731125541,10.148691,76.24413059999999,Vedimara,
StopPoint:node:4731125594,10.148915299999999,76.2242163,Municipal Junction,
StopPoint:node:4731125595,10.1511017,76.22032399999999,Paravur Market,
StopPoint:node:4731125621,10.1868815,76.20305359999999,Kuriyapilly,
StopPoint:node:4731125622,10.150127699999999,76.2631801,,
StopPoint:node:4731125821,10.1876295,76.2077975,,
StopPoint:node:4731126041,10.1495123,76.2546397,,
StopPoint:node:4731126042,10.149103,76.2325396,,
StopPoint:node:4731126321,10.1499016,76.2669439,,
StopPoint:node:4733928387,10.0584683,76.2905773,Manjumel kavala,
StopPoint:node:4735966321,9.967338,76.28616219999999,Jose Jn,
StopPoint:node:4738562685,10.0580976,76.29062259999999,manjumal Kavala,
StopPoint:node:4739412584,10.1974228,76.20074129999999,VP Thuruth,
StopPoint:node:4740877276,10.1617599,76.2143399,Aalummaav,
StopPoint:node:4740877282,10.184275699999999,76.20462239999999,,
StopPoint:node:4740877428,10.1655295,76.2133643,Parayakad Junction,
StopPoint:node:4740877599,10.171766,76.2120104,Thuruthipuram,
StopPoint:node:4740877600,10.178149099999999,76.2109918,Andipillikavu,
StopPoint:node:4740877952,10.178110799999999,76.2109639,Andipillikavu,
StopPoint:node:4745604977,10.153578,76.2735194,Thelathuruth,
StopPoint:node:4745634827,10.1726002,76.2963929,,
StopPoint:node:4745634828,10.1725078,76.2963547,,
StopPoint:node:4745634829,10.170451199999999,76.2958867,,
StopPoint:node:4745634831,10.1628388,76.2875124,,
StopPoint:node:4745634832,10.155470099999999,76.2843876,,
StopPoint:node:4745634833,10.155574399999999,76.284334,,
StopPoint:node:4745634834,10.1555559,76.2845177,,
StopPoint:node:4745634835,10.159627,76.2858239,,
StopPoint:node:4753199419,9.975278399999999,76.2785881,St. Teresa's,
StopPoint:node:4759260783,9.794411499999999,76.3025519,,
StopPoint:node:4759826121,9.9317884,76.26659529999999,Bus stop to Fort Cochin,
StopPoint:node:4769428928,10.0250304,76.3073744,Edapally,
StopPoint:node:4769428932,10.0435236,76.2987272,Kunnumpiram,
StopPoint:node:4769436232,9.9503367,76.3322968,,
StopPoint:node:4769436233,9.954614099999999,76.32764519999999,Champakkara,
StopPoint:node:4769436235,9.969521,76.3179692,Vytilla Junction,
StopPoint:node:4792523922,9.8234281,76.31110029999999,Eramalloor,
StopPoint:node:4792523923,9.8352319,76.30935649999999,Kochveli junction,
StopPoint:node:4792525423,9.796067599999999,76.3159137,Kuthiyathood,
StopPoint:node:4792525427,9.703495499999999,76.3564987,Chenganda,
StopPoint:node:4792530422,9.8781502,76.30381679999999,Aroor Bypass,
StopPoint:node:4802320604,10.1757841,76.2276799,,
StopPoint:node:4802320607,10.1781641,76.22188369999999,,
StopPoint:node:4802320608,10.1782737,76.2162594,,
StopPoint:node:4802320945,10.1783334,76.21865199999999,,
StopPoint:node:4805940485,10.043532899999999,76.2985269,,
StopPoint:node:4884146623,9.9682011,76.2444663,Bus to airport,
StopPoint:node:4889056845,10.102941999999999,76.35846099999999,Thrikkunnathu Seminary,
StopPoint:node:5145335691,9.9853471,76.27982589999999,St Alberts College Bus Stop,
StopPoint:node:5240431892,9.9781935,76.2766276,Penta Menaka,
StopPoint:node:5240432527,9.973791199999999,76.2791799,General Hospital,
StopPoint:node:5240459124,9.9393569,76.2962826,,
StopPoint:node:5261851010,10.1571058,76.3551756,,
StopPoint:node:5261851012,10.157984599999999,76.39218679999999,,
StopPoint:node:5295234430,9.9629303,76.28814,Pallimuku,
StopPoint:node:5377832022,9.9519708,76.3610771,Hill Palace Junction,
StopPoint:node:5377841321,9.9532618,76.3406358,,
StopPoint:node:5379782848,9.965929899999999,76.2952354,Manorama,
StopPoint:node:5423779221,10.0280642,76.3099131,Edappally Toll Kallada Bus,
StopPoint:node:5524950666,10.0814506,76.3644444,Kodikuthmala Bus Stop,
StopPoint:node:5657053466,9.6643244,76.2995808,Bus Stop,
StopPoint:node:5657053467,9.6652325,76.3043462,Bus Stop,
StopPoint:node:5657053468,9.6693939,76.3040668,Bus Stop,
StopPoint:node:5689967927,9.7277478,76.30025189999999,Vettackal Bus Stop,
StopPoint:node:5756729625,10.0238781,76.2516658,Mulavukad Panchayat Bus Stop,
StopPoint:node:5756729626,10.029747,76.2545572,Tower Line Bus Stop,
StopPoint:node:5756729627,10.0415239,76.2627983,Moolampilly Bus Stop,
StopPoint:node:5756729628,10.0107693,76.2580991,Mulavukadu Bus Stop,
StopPoint:node:5756729629,9.9910865,76.264877,Bolgatty Bus Stop,
StopPoint:node:5756729630,9.95491,76.2578577,Chakkamadam Bus Stop,
StopPoint:node:5756729631,9.964146999999999,76.245832,Kunnumpuram Bus Stop,
StopPoint:node:5757830236,10.056813,76.456823,Vathimattom Bus Stop,
StopPoint:node:5757830237,10.058888999999999,76.459366,Bank Junction Bus Stop,
StopPoint:node:5757830238,10.051547,76.449124,Chelakkulam Bus Stop,
StopPoint:node:5757830239,10.053965999999999,76.45285799999999,Jai Bharath College Bus Stop,
StopPoint:node:5757830240,10.043486,76.448447,Kummanod Bhandarakkavala Bus Stop,
StopPoint:node:5757830241,10.030714,76.44874899999999,Double Paalam Bus Stop,
StopPoint:node:5757830242,10.025336,76.449691,Pattimattom,
StopPoint:node:5757830243,10.038879999999999,76.450163,Kummanod Bus Stop,
StopPoint:node:5757830244,10.001394999999999,76.458254,Kadayirippu Bus Stop,
StopPoint:node:5757830245,10.016261,76.45491899999999,Valathupady Bus Stop,
StopPoint:node:5757830246,10.010888,76.455643,Engineering College Bus Stop,
StopPoint:node:5757830247,9.974027999999999,76.447603,Patham Mile Bus Stop,
StopPoint:node:5757830248,10.055159999999999,76.435649,West Chelakkulam Bus Stop,
StopPoint:node:5757830249,10.053289999999999,76.43148599999999,West Chelakkulam Bus Stop,
StopPoint:node:5757830250,10.051895,76.42908299999999,Vilangu Bus Stop,
StopPoint:node:5757830251,10.021047,76.428534,Millumpadi Bus Stop,
StopPoint:node:5757830252,10.0358702,76.4231032,Njaralloor Bus Stop,
StopPoint:node:5757830253,10.033745999999999,76.43009099999999,Njaralloor Bus Stop,
StopPoint:node:5757830254,10.018131,76.426819,Ambalathazham Bus Stop,
StopPoint:node:5757830255,10.005044999999999,76.44003599999999,Pancode Bus Stop,
StopPoint:node:5757830256,10.007427999999999,76.441861,Pulinchode Bus Stop,
StopPoint:node:5757830257,9.999386999999999,76.440958,Iruppachira,
StopPoint:node:5757830258,9.982756,76.442353,Ashramam Bus Stop,
StopPoint:node:5757830259,9.989181,76.441065,Pancode Bus Stop,
StopPoint:node:5757830260,10.060018999999999,76.41962,Muri Vilangu Bus Stop,
StopPoint:node:5757830261,10.056808,76.41066099999999,Chemmalappady Bus Stop,
StopPoint:node:5757830263,10.036567,76.41628299999999,Molekkurish Bus Stop,
StopPoint:node:5757830264,10.040358999999999,76.413688,Sevana Padi Bus Stop,
StopPoint:node:5757830265,10.036514,76.419899,Mayiladum Kunnu Bus Stop,
StopPoint:node:5757830266,10.036218,76.408312,Swarnath Bus Stop,
StopPoint:node:5757830267,10.030861999999999,76.408022,Achappan Kavala Bus Stop,
StopPoint:node:5757830268,10.0176503,76.4022073,Morakkala Church Bus Stop,
StopPoint:node:5757830269,10.010966999999999,76.410359,Pailimukk Bus Stop,
StopPoint:node:5757830270,9.98954,76.409115,Peechingachira Bus Stop,
StopPoint:node:5757830271,9.984468,76.412076,Rajashree Kavala Bus Station,
StopPoint:node:5757830272,9.990449,76.420788,Kollappady Bus Stop,
StopPoint:node:5757830273,9.991907,76.40554399999999,Colony Bus Stop,
StopPoint:node:5757830274,9.96585,76.412663,Bible College Jn Bus Stop,
StopPoint:node:5757830275,9.973352,76.417762,Pannikuzhy Bus Stop,
StopPoint:node:5757830276,9.963609,76.407106,Varikoli Bus Stop,
StopPoint:node:5757830277,10.059535799999999,76.3953878,Pukkattupady Bus Stop,
StopPoint:node:5757830278,10.028338999999999,76.393309,Wonderla,
StopPoint:node:5757830279,10.029427,76.385605,Manakkakadavu Bus Stop,
StopPoint:node:5757830280,10.029641,76.389682,Pallithazham Bus Stop,
StopPoint:node:5757830281,10.000349,76.393602,Padathikara Bus Stop,
StopPoint:node:5757830282,10.007602,76.378181,Padathikkara Thuruth Bus Stop,
StopPoint:node:5757830283,9.984426,76.395596,FACT Club Bus Stop,
StopPoint:node:5757830284,9.985926,76.39197,Harimattam Bus Stop,
StopPoint:node:5757830285,9.983602,76.389309,Ambalamedu Post Office Bus Stop,
StopPoint:node:5757830286,9.977938,76.38469599999999,Kuzhikkad Bus Stop,
StopPoint:node:5757830287,9.994612,76.396456,Chakku Company Bus Stop,
StopPoint:node:5757830288,9.955282,76.39600399999999,Panikkarupady Bus Stop,
StopPoint:node:5757830289,9.970837,76.381241,HOC Bus Stop,
StopPoint:node:5757830290,9.968428,76.377659,Refinery Bus Stop,
StopPoint:node:5757830291,9.975317,76.381134,Jwalagiri,
StopPoint:node:5757830292,10.0492197,76.37189289999999,Kuzhivelippady Bus Stop,
StopPoint:node:5757830293,10.015341,76.36366699999999,Infopark Bus Stop,
StopPoint:node:5757830294,9.9565969,76.3655603,Kollanpady Bus Stop,
StopPoint:node:5757830295,9.962722,76.357874,Makaliyam Bus Stop,
StopPoint:node:5757830296,9.963528,76.37422,Indian Oil Corporation Bus Stop,
StopPoint:node:5757830297,9.957388,76.358314,Navainfotech Services Pvt Ltd Bus Stop,
StopPoint:node:5757830298,9.959192,76.367122,Chitrapuzha Bus Stop,
StopPoint:node:5757830299,10.0490743,76.33894529999999,HMT Bus Stop,
StopPoint:node:5757830300,10.053977,76.35478599999999,Co Operative Medical College Bus Stop,
StopPoint:node:5757830301,10.046687,76.33729799999999,Median Bus Stop,
StopPoint:node:5757830303,10.035309,76.33395,Judgemukku Bus Stop,
StopPoint:node:5757830304,10.036249999999999,76.337898,Vallathol Padi Bus Stop,
StopPoint:node:5757830305,10.041267999999999,76.33837,Kaipadamugal Bus Stop,
StopPoint:node:5757830306,10.021818,76.33800699999999,Ambadimoola Bus Stop,
StopPoint:node:5757830307,10.030407,76.3361,Bharathamatha College Bus Stop,
StopPoint:node:5757830308,10.012914,76.341698,Kakkanad Bus Stop,
StopPoint:node:5757830309,10.017111,76.34480099999999,Kakkanad,
StopPoint:node:5757830310,10.00635,76.34499,CSEZ Bus Stop,
StopPoint:node:5757830311,10.015479,76.35446999999999,Kuzhikattumoola Bus Stop,
StopPoint:node:5757830312,10.001605999999999,76.349657,Chittethukara Bus Stop,
StopPoint:node:5757830313,10.003941,76.34678199999999,Adarsha Junction Bus Stop,
StopPoint:node:5757830314,10.000212,76.33416,Palachuvadu Junction Bus Stop,
StopPoint:node:5757830315,9.998531999999999,76.350794,Chittethukara Bus Stand,
StopPoint:node:5757830316,9.995506899999999,76.3515159,Rajagiri Bus Stop,
StopPoint:node:5757830317,9.982693,76.352437,Indian Oil Bus Stop- Irumpanam,
StopPoint:node:5757830318,9.977198,76.354204,Vettikkavu Bus Stop,
StopPoint:node:5757830319,9.979602,76.353172,BPCL Bus Stop,
StopPoint:node:5757830320,9.985318999999999,76.35211799999999,Thrikathra Bus Stop,
StopPoint:node:5757830521,9.97303,76.33652099999999,Mathoor Junction Bus Stop,
StopPoint:node:5757830522,9.953999,76.34291499999999,Alliance Junction Bus Stop?,
StopPoint:node:5757830523,9.957540999999999,76.34342,Azad Maidan,
StopPoint:node:5757830524,9.974985,76.354534,Kadathu Kadavu Bus Stop,
StopPoint:node:5757830525,9.965468999999999,76.34018499999999,Puthiya Road Bus Stop?,
StopPoint:node:5757830526,9.970749999999999,76.337672,Illikkappady Bus Stop,
StopPoint:node:5757830527,9.962526,76.34139499999999,Pottayil Bus Stop?,
StopPoint:node:5757830528,10.047118,76.318443,University Junction Bus Stop,
StopPoint:node:5757830529,10.053882,76.328147,Govt ITI Bus Stop,
StopPoint:node:5757830531,10.044267999999999,76.324638,CUSAT Main Office Bus Stop,
StopPoint:node:5757830532,10.060442,76.32252,Premier Ground Bus Stop?,
StopPoint:node:5757830533,10.05212,76.319462,South Kalamassery Junction Bus Stop,
StopPoint:node:5757830534,10.048895,76.318985,CUSAT Bus Stop,
StopPoint:node:5757830535,10.038159,76.31537999999999,Pathadipalam Bus Stop,
StopPoint:node:5757830536,10.033496999999999,76.31302199999999,Koonamthai Bus Stop?,
StopPoint:node:5757830537,10.027592,76.31559399999999,Club Junction Bus Stop,
StopPoint:node:5757830538,10.030021999999999,76.319097,Unnichira Bus Stop,
StopPoint:node:5757830539,10.031875999999999,76.321822,Thykkavu Bus Stop,
StopPoint:node:5757830540,10.039102,76.327803,University Ground Bus Stop,
StopPoint:node:5757830541,10.010064,76.31115199999999,Aarow Global Business Solutions,
StopPoint:node:5757830542,10.006416999999999,76.31556499999999,Alinchuvadu Bus Stop,
StopPoint:node:5757830543,10.0048763,76.31325819999999,Pipeline Junction Bus Stop to airport,
StopPoint:node:5757830544,10.012399,76.326216,Vazhakkala Bus Stop,
StopPoint:node:5757830545,10.013359999999999,76.330542,Colony Junction Bus Stop,
StopPoint:node:5757830546,10.014111,76.33287899999999,Padamugal Bus Stop,
StopPoint:node:5757830547,10.007596999999999,76.332995,Satellite Bus Stop,
StopPoint:node:5757830548,9.995885,76.32559599999999,Vennala School Bus Stop?,
StopPoint:node:5757830549,9.987392,76.316037,Vyshali Bus Stop?,
StopPoint:node:5757830550,9.981506999999999,76.332278,Kappattikavu Bus Stop?,
StopPoint:node:5757830551,9.992709999999999,76.31522199999999,Puthiya Road Bypass Junction. Bus Stop to airport,
StopPoint:node:5757830552,9.982930999999999,76.312831,Kuthappady Bus stop,
StopPoint:node:5757830553,9.979135,76.31731099999999,Chalikkavattom Bus Stop?,
StopPoint:node:5757830554,9.980383999999999,76.313435,Anjumuri Bus Stop,
StopPoint:node:5757830555,9.983400999999999,76.330891,Puthenkulangara Shiva Temple Bus Stop,
StopPoint:node:5757830556,9.958844,76.318379,West Thykoodam Bus Stop,
StopPoint:node:5757830557,9.967497999999999,76.318945,Vytilla Bus Stop?,
StopPoint:node:5757830558,9.963229,76.319073,Powerhouse Bus Stop?,
StopPoint:node:5757830559,9.9590549,76.325002,Thykoodam Bus Stop,
StopPoint:node:5757830560,9.960989,76.321865,OEN Bus Stop?,
StopPoint:node:5757830561,9.969313,76.321632,Vytilla Hub,
StopPoint:node:5865718306,9.685328199999999,76.3023475,Thaikkal Bus Stop,
StopPoint:node:5958357616,10.1262344,76.3159081,Palakkal,
StopPoint:node:5958358407,10.128449999999999,76.3053438,Tvs malikampeedika,
StopPoint:node:5958358585,10.1292105,76.3001961,Kottapuram,
StopPoint:node:5958358593,10.127585999999999,76.3092784,Malikampeedika,
StopPoint:node:5958359385,10.126489099999999,76.3251408,Valyappanpadi,
StopPoint:node:6039119919,10.0696493,76.38564559999999,NAD Kavala,
StopPoint:node:6039131398,10.0523552,76.3822891,KMEA,
StopPoint:node:6043484164,10.0503594,76.3774474,Punchayath Junction,
StopPoint:node:6043510755,10.0463331,76.363693,Thevakkal Bus Stop,
StopPoint:node:6043532762,10.0365115,76.34384179999999,Mundampalam Bus Stop,
StopPoint:node:6043556589,10.065370999999999,76.3899586,Kunjattukara,
StopPoint:node:6055048486,10.153503899999999,76.37349999999999,,
StopPoint:node:6184164257,10.183152,76.22493089999999,Kurumbathuruth Kadav,
StopPoint:node:6199097354,10.0870225,76.3035314,Edayar,
StopPoint:node:6199097355,10.1017763,76.3012722,,
StopPoint:node:6199119515,10.0777833,76.3184612,Esi,
StopPoint:node:6236677902,10.074401499999999,76.3074567,,
StopPoint:node:6300587285,9.939568399999999,76.25563269999999,,
StopPoint:node:6300587286,9.945148,76.2559735,,
StopPoint:node:6300587287,9.945899599999999,76.2451978,To fort kochi,
StopPoint:node:6300587288,10.0299901,76.3109525,Bus to airport,
StopPoint:node:6300587385,9.9414263,76.2558871,,
StopPoint:node:6300587386,9.9459152,76.2496512,To fort kochi,
StopPoint:node:6300587387,9.9458868,76.2473239,To fort kochi,
StopPoint:node:6300587388,9.9572392,76.2423743,To fort kochi,
StopPoint:node:6300587389,9.9652326,76.2435289,To fort kochi,
StopPoint:node:6300587390,9.9324634,76.29906249999999,Bus to airport,
StopPoint:node:6300587391,9.936692899999999,76.3099853,Bus to airport,
StopPoint:node:6300587392,9.9377251,76.3178633,Bus to airport,
StopPoint:node:6300587393,9.9630583,76.31833189999999,Bus to airport,
StopPoint:node:6300587394,9.9680704,76.3179498,Bus to airport,
StopPoint:node:6300587395,9.989499799999999,76.3154984,,
StopPoint:node:6300587485,9.9516504,76.24459949999999,To fort kochi,
StopPoint:node:6300587486,10.0236903,76.30848519999999,Bus to airport,
StopPoint:node:6300587585,9.9493875,76.31822729999999,Bus to airport,
StopPoint:node:6579556388,10.0424358,76.3541091,Kangarappady Bus Stop,
StopPoint:node:6579556389,10.0428743,76.3546884,Kangarappady Bus Stop,
StopPoint:node:6604465433,9.913362099999999,76.2828956,Pashnithodu,
StopPoint:node:6604465434,9.913292799999999,76.2828061,Pashnithodu,
StopPoint:node:6604480384,9.912057899999999,76.2935936,Pambaimoola,
StopPoint:node:6604489385,9.912182399999999,76.2936804,Pambaimoola,
StopPoint:node:6604489386,9.9125692,76.2923623,Pambaimoola,
StopPoint:node:6859298874,10.0675705,76.212696,CT office Bus stop,
StopPoint:node:6864553692,10.0008942,76.2346465,Company Peedika,
StopPoint:node:6894484657,10.1542669,76.28936829999999,,
StopPoint:node:6895227823,10.109867,76.2025862,Pallathamkulangara,
StopPoint:node:6895265704,10.113556599999999,76.20161379999999,Cheruvaippu Junction,
StopPoint:node:6914445924,10.133373599999999,76.1960939,Gowreeswaram,
StopPoint:node:6926314826,9.9806741,76.2831666,Padma,
StopPoint:node:6996454939,9.897822399999999,76.3694021,Nadakkavu Busstop,
StopPoint:node:7018599468,10.003664599999999,76.2332627,Puthuvype,
StopPoint:node:7018599469,10.0043519,76.2328216,Puthuvype,
StopPoint:node:7018735456,10.0147926,76.2275184,Valappu,
StopPoint:node:7018945497,10.000649899999999,76.2348542,Companypeedika,
StopPoint:node:7019483219,10.0188416,76.22562239999999,Malippuram,
StopPoint:node:7019483220,10.0187084,76.2257818,Malippuram,
StopPoint:node:7019483221,10.0207371,76.2249148,Thekkan Malippuram,
StopPoint:node:7019489991,10.0567175,76.2151595,Veliyatham Parambu,
StopPoint:node:7019489996,10.067586,76.2125993,CT office Bus stop,
StopPoint:node:7019490009,10.0755758,76.2113425,Thayyezhuth Ln,
StopPoint:node:7019490039,10.079178599999999,76.2104453,Aniyal,
StopPoint:node:7019490048,10.082715,76.209693,edavanakad palli,
StopPoint:node:7019490052,10.085334999999999,76.209023,KPMHS,
StopPoint:node:7019490053,10.0852632,76.2091039,KPMHS,
StopPoint:node:7019490054,10.0877166,76.2084461,AE Office,
StopPoint:node:7019490057,10.0904902,76.2078495,Pazhangad,
StopPoint:node:7019490058,10.0905454,76.2077577,Pazhangad,
StopPoint:node:7019490059,10.093812,76.2068314,Vaachakkal,
StopPoint:node:7019490060,10.0938433,76.2069176,Vaachakkal,
StopPoint:node:7019500464,10.0992379,76.2053727,Illathupadi,
StopPoint:node:7019500465,10.0992128,76.2052925,Illathupadi,
StopPoint:node:7019500470,10.102444199999999,76.2043331,,
StopPoint:node:7019500471,10.1024897,76.2044403,,
StopPoint:node:7019500474,10.104365399999999,76.2038093,Kuzhuppilly,
StopPoint:node:7019500475,10.104374499999999,76.2038924,Kuzhuppilly,
StopPoint:node:7019540813,10.1098273,76.2026683,Pallathamkulangara,
StopPoint:node:7019540815,10.1134364,76.20175069999999,Cheruvaippu Junction,
StopPoint:node:7019570854,10.0250224,76.2239125,Perumalppadi,
StopPoint:node:7019570855,10.030563299999999,76.2219472,Elamkunnapuzha,
StopPoint:node:7019570856,10.030734299999999,76.2219897,Elamkunnapuzha,
StopPoint:node:7019570857,10.035649099999999,76.2205424,Perumpilly,
StopPoint:node:7019570858,10.0361177,76.2202792,Perumpilly,
StopPoint:node:7019570862,10.0409724,76.2190011,hospital Jn,
StopPoint:node:7019570863,10.0419123,76.2187302,hospital Jn,
StopPoint:node:7019570864,10.0469621,76.2173481,Njarackal,
StopPoint:node:7019570866,10.048835,76.21686319999999,Mampilly,
StopPoint:node:7019570867,10.0488549,76.21693619999999,Mampilly,
StopPoint:node:7019570868,10.052781099999999,76.2153857,Maanattu Parambu,
StopPoint:node:7019570869,10.052889799999999,76.2154429,Maanattu Parambu,
StopPoint:node:7019570870,10.0567833,76.2150498,Veliyatham Parambu,
StopPoint:node:7019570871,10.059617099999999,76.2139649,kudungasseri,
StopPoint:node:7019570872,10.059631099999999,76.2140667,kudungasseri,
StopPoint:node:7019570873,10.0633103,76.2131137,kochambalam,
StopPoint:node:7019570874,10.0633289,76.2131832,kochambalam,
StopPoint:node:7019570875,10.0664302,76.2128566,ATH,
StopPoint:node:7019570876,10.0721065,76.21179529999999,Nayarambalam,
StopPoint:node:7019570877,10.0755483,76.2112527,Thayyezhuth Ln,
StopPoint:node:7019609343,10.1262901,76.1982845,Ayyampilly,
StopPoint:node:7019609344,10.115720699999999,76.2008723,Palli Hospital,
StopPoint:node:7019609345,10.1155832,76.20102109999999,Palli Hospital,
StopPoint:node:7019609346,10.1212096,76.19927469999999,Janatha,
StopPoint:node:7019609347,10.1177574,76.2000745,Vadakekkara,
StopPoint:node:7019609348,10.1282258,76.1977489,Ramavarma,
StopPoint:node:7019609349,10.1282337,76.1978319,Ramavarma,
StopPoint:node:7019609351,10.133228299999999,76.1962035,Gowreeswaram,
StopPoint:node:7019609353,10.1392946,76.19480709999999,Devaswam nada,
StopPoint:node:7019697468,10.138768599999999,76.1944881,Devaswam nada,
StopPoint:node:7021264003,9.9824079,76.2414167,Kaalamukku,
StopPoint:node:7021264004,9.9823641,76.2409292,Kaalamukku,
StopPoint:node:7021264005,9.99025,76.23899089999999,Murikkumpaadam,
StopPoint:node:7021264006,9.9901588,76.23910889999999,Murikkumpaadam,
StopPoint:node:7052794239,10.117642199999999,76.2002476,Vadakekkara,
StopPoint:node:7052794240,10.1396021,76.1991468,,
StopPoint:node:7052794241,10.143190299999999,76.2120193,,
StopPoint:node:7052794242,10.143157,76.2123319,,
StopPoint:node:7052794244,10.1438923,76.2167499,Perumpadanna,
StopPoint:node:7052794245,10.1437566,76.216514,Perumpadanna,
StopPoint:node:7052794250,10.144162399999999,76.2203139,,
StopPoint:node:7052794251,10.1441,76.22055979999999,,
StopPoint:node:7052794252,9.983918599999999,76.2737822,High Court,
StopPoint:node:7052794253,9.9839915,76.27397049999999,High Court,
StopPoint:node:7052794270,9.9914481,76.2655954,Bolgatty Bus Stop,
StopPoint:node:7052794271,9.985801799999999,76.2506849,Vallarpadam,
StopPoint:node:7052794272,9.9859128,76.25049179999999,Vallarpadam,
StopPoint:node:7052794273,9.986603599999999,76.2402536,SeaFood,
StopPoint:node:7052794274,9.9867106,76.2403216,SeaFood,
StopPoint:node:7060336594,9.9735838,76.2810882,,
StopPoint:node:7068947210,9.9676489,76.3049747,Elamkulam,
StopPoint:node:7068947211,9.9678782,76.3050171,elamkulam,
StopPoint:node:7069576483,10.0189738,76.2751083,Vaduthala Valavu,
StopPoint:node:7069576484,10.0170519,76.2762302,Kurishupalli,
StopPoint:node:7069624685,10.017038099999999,76.2761566,Kurishupalli,
StopPoint:node:7069624689,10.0138365,76.276817,Don Bosco,
StopPoint:node:7080379200,10.0103156,76.2301519,School muttam,
StopPoint:node:7083824551,10.010101599999999,76.2301332,School muttam,
StopPoint:node:7083824552,9.994717099999999,76.2371959,Thekkan malippuram,
StopPoint:node:7083824553,9.994796599999999,76.23731409999999,Thekkan malippuram,
StopPoint:node:7084242099,10.145139799999999,76.2349916,Pullamkulam,
StopPoint:node:7084389851,10.140952799999999,76.203369,,
StopPoint:node:7084389852,10.140889999999999,76.2034965,,
StopPoint:node:7086058489,9.987103,76.2536975,,
StopPoint:node:7086058490,9.9868419,76.2535664,,
StopPoint:node:7097918159,9.9818807,76.24106909999999,Kaalamukku,
StopPoint:node:7097918160,9.977927099999999,76.24105569999999,,
StopPoint:node:7097918161,9.977850199999999,76.2409918,,
StopPoint:node:7098248597,10.1393801,76.1942517,Devaswam nada,
StopPoint:node:7098248598,10.1434085,76.1920186,Karuthala,
StopPoint:node:7098248599,10.143474399999999,76.1920906,Karuthala,
StopPoint:node:7098248600,10.1482361,76.19018919999999,bakery,
StopPoint:node:7098248601,10.148140999999999,76.1903201,bakery,
StopPoint:node:7098248602,10.150960999999999,76.1899292,smhss,
StopPoint:node:7098248603,10.1507725,76.1899272,smhss,
StopPoint:node:7099505375,10.1260087,76.23735959999999,Kothakulam,
StopPoint:node:7099542859,10.1312021,76.23329149999999,,
StopPoint:node:7099562807,10.1400046,76.22968689999999,Thekke Naaluvazhi,
StopPoint:node:7099579495,10.1260224,76.2375156,Kothakulam,
StopPoint:node:7099583258,10.1311754,76.2331358,,
StopPoint:node:7099924088,10.1494869,76.231762,Paravur private bus stand,
StopPoint:node:7099969096,10.0458459,76.2208205,,
StopPoint:node:7099969097,10.0457694,76.2207791,,
StopPoint:node:7099969098,10.0465992,76.2319563,manjanakkad,
StopPoint:node:7099984219,10.068897999999999,76.2231817,Nedungad,
StopPoint:node:7102015085,10.1564617,76.1873997,Janatha,
StopPoint:node:7102015086,10.1566726,76.18748099999999,Janatha,
StopPoint:node:7102015087,10.160705799999999,76.1844289,Kolothumkadavu,
StopPoint:node:7102015088,10.1608085,76.1845333,Kolothumkadavu,
StopPoint:node:7102015089,10.1641333,76.18295189999999,Convent,
StopPoint:node:7102015090,10.1641686,76.18307589999999,Convent,
StopPoint:node:7102015091,10.1667395,76.1814967,Pallippuram Palli,
StopPoint:node:7102015092,10.166841699999999,76.1813945,Pallippuram Palli,
StopPoint:node:7102015139,10.168908199999999,76.1806478,Police Station,
StopPoint:node:7102015140,10.1687772,76.18078679999999,Police Station,
StopPoint:node:7102015141,10.1706516,76.1787566,Angaadi,
StopPoint:node:7102015142,10.1707786,76.1788162,Angaadi,
StopPoint:node:7102015143,10.1712256,76.1774758,Mani Bazar,
StopPoint:node:7102015144,10.171505999999999,76.1772621,Mani Bazar,
StopPoint:node:7102015145,10.1741476,76.1758885,Beach Road,
StopPoint:node:7102015146,10.174315799999999,76.1759077,Beach Road,
StopPoint:node:7102015147,10.1798428,76.17252739999999,Ayyaar Valavu,
StopPoint:node:7102015148,10.179957199999999,76.1725684,Ayyaar Valavu,
StopPoint:node:7102128834,10.123501,76.2387995,Mahilappadi,
StopPoint:node:7102128835,10.123653,76.2388447,Mahilappadi,
StopPoint:node:7102133726,10.0307663,76.2390861,Pukkaad,
StopPoint:node:7102134354,10.1399565,76.2295907,Thekke Naaluvazhi,
StopPoint:node:7102134410,10.1225348,76.2345911,Sankaparambu,
StopPoint:node:7102134411,10.122444,76.2345572,Sankaparambu,
StopPoint:node:7102134413,10.1252984,76.23052369999999,kshemodaya sangam,
StopPoint:node:7102134414,10.1253981,76.2305865,kshemodaya sangam,
StopPoint:node:7102134432,10.1272457,76.2293255,,
StopPoint:node:7102134433,10.127302,76.22941039999999,,
StopPoint:node:7102134434,10.1293274,76.22860399999999,Nandhyattukunnam,
StopPoint:node:7102134435,10.1293867,76.2286922,Nandhyattukunnam,
StopPoint:node:7102134436,10.1320245,76.2278134,Kaalikulangara Temple,
StopPoint:node:7102134437,10.132109699999999,76.2278766,Kaalikulangara Temple,
StopPoint:node:7102134475,10.1351255,76.2257978,Ameparambu,
StopPoint:node:7102134476,10.1351012,76.22588089999999,Ameparambu,
StopPoint:node:7130769338,9.972249,76.2861966,Maharajas Ground,
StopPoint:node:7130826462,9.9647842,76.2887235,Valanjambalam,
StopPoint:node:7131595937,9.966629,76.29870009999999,Kadavanthra,
StopPoint:node:7131595938,9.965505799999999,76.29429429999999,Panampilly Nagar,
StopPoint:node:7131609339,9.9638534,76.2860633,,
StopPoint:node:7131609340,9.9676381,76.28087359999999,,
StopPoint:node:7133380913,10.083691,76.3139211,പറവൂര്‍ എടയാര്‍ Bus Stop,
StopPoint:node:7151947331,10.1415319,76.2366632,Peruvaaram,
StopPoint:node:7151947332,10.1413756,76.2368699,Peruvaaram,
StopPoint:node:7151965119,10.1230692,76.2452267,Cheriyappilly,
StopPoint:node:7151965120,10.123138599999999,76.2452674,Cheriyappilly,
StopPoint:node:7172652013,10.1110507,76.2439943,Kottuvalli North,
StopPoint:node:7175749744,9.9755437,76.28048919999999,,
StopPoint:node:7175749745,9.9683799,76.2983924,,
StopPoint:node:7175749752,9.9674794,76.3000174,,
StopPoint:node:7175922504,9.9680792,76.312784,Janatha,
StopPoint:node:7184625487,9.9993388,76.22119529999999,Light House,
StopPoint:node:7195273286,10.1006466,76.2641179,ആലുവ & പാതാളം ബസ് സ്റ്റോപ്പ്‌,
StopPoint:node:7195273583,10.084521299999999,76.3140588,ആലുവ ബസ് സ്റ്റോപ്പ്‌,
StopPoint:node:7195273584,10.0835556,76.3148016,"പാതാളം,എറണാകുളം, കളമശ്ശേരി ബസ് സ്റ്റോപ്പ്‌",
StopPoint:node:7232403907,10.196506099999999,76.3882553,Angamaly TB Junction Bus Stop,
StopPoint:node:7232403908,10.197834499999999,76.3967179,Yoodhapuram Bus Stop,
StopPoint:node:7232405395,10.199686,76.39955859999999,Subrahmanya Swami Temple Bus Stop,
StopPoint:node:7273749411,9.6818407,76.36316149999999,Velliyakulam Bus Stop,
StopPoint:node:7273749412,9.6828948,76.3596764,Varanad Bus Stop,
StopPoint:node:7273749413,9.683116,76.35733069999999,lisue nagar bus stop,
StopPoint:node:7273749414,9.6849548,76.3516822,kalikulam bus stop,
StopPoint:node:7273749415,9.6855078,76.347657,keerthi bus stop,
StopPoint:node:7273749416,9.6858741,76.3455463,Girls junction cherthala bus stop,
StopPoint:node:7273749417,9.6859398,76.34241519999999,cherthala ambalam bus stop,
StopPoint:node:7273749418,9.6823453,76.3416965,hospital bus stop,
StopPoint:node:7273749419,9.682646,76.3406797,hospital bus stop,
StopPoint:node:7273749421,9.689795799999999,76.34267539999999,court junction bus stop,
StopPoint:node:7273749422,9.690398199999999,76.342675,court junction bus stop,
StopPoint:node:7273749423,9.6904174,76.3430922,court junction bus stop,
StopPoint:node:7273749424,9.6905504,76.341049,Iron bridge bus stop,
StopPoint:node:7273771223,9.6898851,76.34571439999999,kuppi kavala bus stop,
StopPoint:node:7318426693,10.1886762,76.3927786,East Nagar (oliyaan Kappela),
StopPoint:node:7318426735,10.187028399999999,76.3957595,Areekal,
StopPoint:node:7318526551,9.963766699999999,76.3743569,Hindustan Oil Corporation Bus Stop,
StopPoint:node:7318684969,9.945986,76.3684571,Thiruvankulam Panchayat Bus Stop,
StopPoint:node:7318711520,9.8316229,76.4689851,Newsprint Nagar Bus stop,
StopPoint:node:7318711521,9.827164999999999,76.47638289999999,Police Station,
StopPoint:node:7318711522,9.8270281,76.4783616,Karikode,
StopPoint:node:7331575715,9.9521113,76.3405051,,
StopPoint:node:7335071392,10.0525532,76.3202701,,
